fips,state,county,year,totalhomeless,county_population,eviction_filings,renting_household_population,z_med_rent,z_med_inc,pct_white,pct_african_american,pct_latinx,primary_care_physician_rate,pct_single_parent_households,pct_smokers,pct_obese,pct_unemployed,pct_high_school_graduation,violent_crime_rate,z_air_rseihazard,z_land_rseihazard,z_water_rseihazard,republican_voting_pct,pct_poverty,pop_per_sq_mile,lng,lat
1001,Alabama,Autauga County,2017,38,54571,152,5441,0.352173913,0.332512061,0.7502174,0.1897645,0.027,0.088962544,0.251656106,0.173802394,0.341,0.052434013,0.9,0.154680564,0.010210599,1.28E-08,1.24E-05,0.753774703,1.008246138,0.000249914,-86.64289976,32.53514228
1003,Alabama,Baldwin County,2017,160,182265,832,24579,0.347826087,0.308184011,0.8301883,0.09384115,0.044,0.158467676,0.267836554,0.179371199,0.274,0.054869669,0.85,0.126197268,0.053984062,0,3.82E-05,0.797922075,1.151740597,0.000358591,-87.72274477,30.72782468
1005,Alabama,Barbour County,2017,11,27457,26,3352,0.147826087,0.120589249,0.4614848,0.4731596,0.042,0.087659752,0.564555633,0.227766886,0.444,0.089391304,0.861734694,0.191333154,6.54E-05,4.34E-11,3.92E-08,0.528232455,0.809411079,7.58E-05,-85.39106787,31.87009042
1007,Alabama,Bibb County,2017,13,22915,43,2131,0.215217391,0.216678153,0.7458161,0.2208017,0.024,0.085682906,0.295696721,0.198507658,0.403,0.066077739,0.85,0.085747313,4.03E-05,0,0.000173789,0.782396674,0.891730308,9.68E-05,-87.12681433,32.99837607
1009,Alabama,Blount County,2017,32,57322,66,4620,0.186956522,0.245580634,0.8714026,0.014225,0.09,0.040834182,0.273812139,0.210373815,0.346,0.054040736,0.9120625,0.123185015,3.53E-06,0,1.57E-05,0.913811684,1.00226789,0.000240277,-86.5670064,33.98087061
1011,Alabama,Bullock County,2017,4,10914,49,1229,0.190217391,0.10306685,0.2152241,0.7624614,0.003,0.059716936,0.732735426,0.22774925,0.43,0.077728892,0.875,0.17597975,0.002011953,0,7.26E-06,0.244111344,0.787703867,4.33E-05,-85.71572943,32.10045868
1013,Alabama,Butler County,2017,10,20947,30,2759,0.156521739,0.162999655,0.5185518,0.4507865,0.003,0.09501277,0.516033128,0.218323475,0.363,0.075475826,0.83,0.304727368,9.57E-08,0,0,0.568100154,0.929536449,6.82E-05,-86.68040924,31.75252432
1015,Alabama,Calhoun County,2017,106,118572,574,15350,0.19673913,0.215446244,0.7247997,0.2051991,0.036,0.14233027,0.396044585,0.203203824,0.322,0.069792187,0.921633739,0.334349929,0.210016427,1.22E-07,0.000116165,0.712798476,0.943587019,0.00050766,-85.82574705,33.77141549
1017,Alabama,Chambers County,2017,21,34215,156,4433,0.21576087,0.169572708,0.557914,0.3937504,0.022,0.088029723,0.523444976,0.209058747,0.397,0.06013245,0.85,0.306716057,0.00033169,0,0,0.57554853,0.97156218,0.000151422,-85.39168915,32.91366622
1019,Alabama,Cherokee County,2017,14,25989,47,2472,0.156521739,0.179410751,0.9178819,0.04900785,0.016,0.05760459,0.31587934,0.184208244,0.336,0.054389569,0.88,0.223318167,0.013578485,0,2.19E-06,0.852666676,0.981876948,0.00012464,-85.60387066,34.17588713
1021,Alabama,Chilton County,2017,23,43643,114,4307,0.198913043,0.215317023,0.8013885,0.09360346,0.077,0.039018356,0.294845955,0.201122305,0.359,0.056674202,0.86,0.201335072,3.80E-06,0,9.08E-07,0.838205874,0.998968907,0.000170445,-86.71887934,32.84771004
1023,Alabama,Choctaw County,2017,5,13859,10,1062,0.116847826,0.126602343,0.5636711,0.4260038,0.005,0.080411467,0.429889954,0.204785855,0.408,0.091137506,0.875,0.064867481,0.003889685,7.14E-09,0.000545075,0.569092155,0.923010318,3.75E-05,-88.26305322,32.02019311
1025,Alabama,Clarke County,2017,8,25833,50,2563,0.132065217,0.137310476,0.5287653,0.4581539,0.002,0.111663125,0.414508691,0.200587589,0.382,0.117588191,0.928605263,0.255819159,0.006465111,1.66E-10,0.000475533,0.553960741,0.920798978,5.17E-05,-87.83077181,31.67695451
1027,Alabama,Clay County,2017,8,13932,29,1493,0.133695652,0.181228463,0.8028106,0.1473314,0.031,0.063242142,0.405714286,0.191426832,0.373,0.061527325,0.925,0.205042512,0.000122058,0,0,0.809163809,0.939276486,5.89E-05,-85.8607443,33.26966941
1029,Alabama,Cleburne County,2017,10,14972,21,1462,0.139673913,0.172294969,0.9264292,0.02630874,0.024,0.056834052,0.245217391,0.182919752,0.3,0.060194175,0.98,0.087280811,1.88E-08,0,2.52E-08,0.8939206,0.980162971,7.09E-05,-85.51786948,33.67495934
1031,Alabama,Coffee County,2017,27,49948,191,7133,0.252173913,0.284002412,0.7062666,0.1705272,0.067,0.117845616,0.371745061,0.185682175,0.337,0.059133432,0.962293883,0.186966304,2.26E-07,0,2.10E-05,0.789958179,1.025186194,0.00020423,-85.98828821,31.40188396
1033,Alabama,Colbert County,2017,35,54428,170,6765,0.202717391,0.235785665,0.7865859,0.157097,0.024,0.133564136,0.347337278,0.204485884,0.375,0.079029933,0.888508772,0.261734202,0.010778194,7.27E-09,0.000244303,0.69606781,0.990427721,0.000246455,-87.80463371,34.70085284
1035,Alabama,Conecuh County,2017,6,13228,21,1444,0.135869565,0.111896968,0.5013585,0.4763465,0.018,0.08455579,0.464943343,0.229293813,0.364,0.091784339,0.825,0.329772823,5.97E-06,0,8.50E-09,0.526153862,0.93642274,3.87E-05,-86.9938237,31.42899352
1037,Alabama,Coosa County,2017,6,11539,16,990,0.12826087,0.156038939,0.6526025,0.3420544,0.001,0.087844737,0.387775061,0.203049246,0.397,0.067253442,0.825,0.119837644,0.002011953,0,7.26E-06,0.654851854,0.908050958,4.38E-05,-86.24789409,32.9362956
1039,Alabama,Covington County,2017,13,37765,117,4483,0.157608696,0.17585286,0.8338733,0.1282429,0.016,0.107375181,0.374195898,0.185673368,0.34,0.071234472,0.952759382,0.159006099,7.30E-05,0,5.04E-10,0.847514987,0.966238581,9.61E-05,-86.45142629,31.24861005
1041,Alabama,Crenshaw County,2017,8,13906,25,1671,0.108695652,0.169055824,0.7117923,0.2269744,0.018,0.03065956,0.371983704,0.190274792,0.397,0.060138539,0.925,0.291289569,0.002011953,0,7.26E-06,0.730613589,0.984826694,6.06E-05,-86.31341907,31.73169775
1043,Alabama,Cullman County,2017,39,80406,162,8773,0.199456522,0.192711923,0.9211911,0.01158991,0.042,0.113340901,0.2983612,0.179590909,0.334,0.052734861,0.908595388,0.0987825,0.002011953,0,2.97E-06,0.896757007,1.014190483,0.000302193,-86.86718877,34.13183982
1045,Alabama,Dale County,2017,33,50251,167,7994,0.221195652,0.222019297,0.6903867,0.1951274,0.061,0.051959666,0.347800438,0.190694657,0.365,0.063518575,0.904448743,0.211090605,0.000106635,1.42E-07,8.20E-09,0.757806897,0.958647589,0.000235168,-85.611081,31.43204363
1047,Alabama,Dallas County,2017,16,43820,162,6508,0.16576087,0.098328739,0.2754003,0.7024657,0.01,0.148969487,0.714392523,0.227266954,0.408,0.096492355,0.900848126,0.45065623,0.003044971,1.24E-08,0.000100057,0.310818791,0.88224555,0.000107106,-87.10649231,32.32606741
1049,Alabama,DeKalb County,2017,50,71109,133,7149,0.163586957,0.164067884,0.8067556,0.01375,0.143,0.090451424,0.281204441,0.215681082,0.304,0.060295239,0.917804428,0.192785626,0.004412259,0,4.46E-06,0.855276287,0.994642028,0.000246201,-85.80378574,34.46023769
1051,Alabama,Elmore County,2017,61,79303,236,7181,0.299456522,0.337344935,0.7322932,0.2111511,0.029,0.058211793,0.324021745,0.184948076,0.354,0.050977131,0.903799392,0.160433621,1.58E-07,0,0,0.765972793,0.962006481,0.000352978,-86.14884036,32.59724126
1053,Alabama,Escambia County,2017,15,38319,98,4202,0.146195652,0.127601654,0.6022289,0.319117,0.022,0.085176514,0.466761973,0.210787125,0.377,0.069982847,0.841319797,0.281235703,0.003177936,1.75E-09,0.001187802,0.683287501,0.892090086,0.000104581,-87.16176056,31.12613571
1055,Alabama,Etowah County,2017,93,104430,609,12386,0.19076087,0.205332529,0.7807925,0.1536444,0.037,0.165565376,0.384219704,0.19198683,0.351,0.061199454,0.840658537,0.31678707,0.000165627,0,1.50E-05,0.755999506,0.963573686,0.000515857,-86.03476854,34.04518886
1057,Alabama,Fayette County,2017,10,17241,16,1941,0.129891304,0.148776706,0.8466687,0.1120289,0.017,0.241260114,0.355439847,0.197893977,0.337,0.070043777,0.925,0.103982032,6.27E-06,0,0,0.831310391,0.939968679,6.99E-05,-87.73924331,33.72117266
1059,Alabama,Franklin County,2017,19,31704,59,3849,0.138043478,0.174629566,0.7708135,0.04241963,0.163,0.101704546,0.436464088,0.202177762,0.332,0.063973559,0.928016086,0.201034532,0.000419944,2.84E-11,1.38E-08,0.811626494,0.981958113,0.000133274,-87.843283,34.44238135
1061,Alabama,Geneva County,2017,17,26790,64,2981,0.161413043,0.154669194,0.8393417,0.09316372,0.038,0.056148942,0.41424713,0.214683158,0.341,0.058578567,0.943148148,0.199400584,2.91E-05,0,0,0.867610037,0.975065323,0.000122909,-85.83932953,31.09486905
1063,Alabama,Greene County,2017,5,9045,18,1101,0.158152174,0.013921433,0.171493,0.7959886,0.012,0.100205488,0.581854043,0.262570342,0.463,0.110189983,0.875,0.516005432,0.000134066,0,3.30E-07,0.17274788,0.915091211,3.40E-05,-87.95276818,32.853304
1065,Alabama,Hale County,2017,9,15760,23,1563,0.104347826,0.089446933,0.3961846,0.5872909,0.013,0.028222388,0.587875417,0.220519086,0.404,0.078334972,0.86,0.112898867,3.07E-08,0,0,0.39921993,0.925063452,6.12E-05,-87.62930576,32.7625948
1067,Alabama,Henry County,2017,11,17302,27,1685,0.157608696,0.24484838,0.6893833,0.2760453,0.025,0.062322391,0.298145117,0.179731789,0.358,0.067706013,0.925,0.162035257,6.58E-08,0,0,0.71075213,0.977054676,8.14E-05,-85.24094152,31.51487991
1069,Alabama,Houston County,2017,64,101547,646,15451,0.229891304,0.218022054,0.6691391,0.2672397,0.032,0.191246889,0.430566901,0.197945442,0.328,0.061797376,0.928956602,0.226944426,4.55E-06,0,0,0.742365658,1.012890583,0.000482823,-85.30251402,31.15295179
1071,Alabama,Jackson County,2017,17,53227,107,5710,0.163586957,0.169090283,0.8933275,0.03453373,0.029,0.12612162,0.289663566,0.185429479,0.32,0.065881252,0.915085179,0.210152222,0.054405916,1.68E-08,0.000386514,0.819464266,0.963777782,0.00012876,-85.99947584,34.77954231
1073,Alabama,Jefferson County,2017,670,658466,5798,100000,0.304347826,0.273871468,0.5013881,0.4254454,0.037,0.228274386,0.427345009,0.193663634,0.332,0.057969983,0.889864935,0.463890554,0.055652338,1.37E-05,0.000319635,0.462102383,0.977614638,0.001593391,-86.89657084,33.5543433
1075,Alabama,Lamar County,2017,9,14564,17,1758,0.040217391,0.142729152,0.859901,0.1118209,0.015,0.087844737,0.32822186,0.200754294,0.336,0.063021481,0.875,0.094433664,5.04E-05,0,6.73E-05,0.848957598,0.941911563,6.12E-05,-88.09715315,33.77909349
1077,Alabama,Lauderdale County,2017,51,92709,343,12767,0.184782609,0.224646795,0.8478803,0.09918453,0.025,0.112775564,0.322069472,0.182293132,0.329,0.069391769,0.951210641,0.156083436,0.000968523,0,2.07E-07,0.737074316,0.974878383,0.00037154,-87.65411658,34.9015002
1079,Alabama,Lawrence County,2017,19,34339,36,2961,0.120652174,0.209570986,0.7654276,0.1089807,0.021,0.051202756,0.378994203,0.202925883,0.355,0.076601269,0.92,0.153650061,0,0,0,0.749170125,0.953143656,0.000128058,-87.31085381,34.52223687
1081,Alabama,Lee County,2017,83,140247,660,25992,0.278804348,0.24007581,0.6742233,0.2284493,0.037,0.102787995,0.347288384,0.192164436,0.29,0.05115447,0.896707892,0.159946413,0.004801017,0,5.04E-08,0.619854271,1.116073784,0.000713911,-85.35522451,32.60106116
1083,Alabama,Limestone County,2017,80,82782,244,8784,0.184782609,0.312474156,0.7689679,0.1333126,0.058,0.073162411,0.282118181,0.180435164,0.329,0.054586311,0.932837109,0.083402242,0.005649526,0,9.13E-05,0.75430131,1.103295402,0.000450612,-86.98207203,34.81013487
1085,Alabama,Lowndes County,2017,5,11299,15,1009,0.180434783,0.091703997,0.2447245,0.7411098,0.007,0.087844737,0.638655462,0.22527178,0.451,0.11584728,0.825,0.355700413,5.43E-05,0,3.55E-06,0.263943315,0.882378972,3.74E-05,-86.65002353,32.1550404
1087,Alabama,Macon County,2017,13,21452,44,3150,0.15923913,0.1023949,0.1559777,0.8178336,0.016,0.077212393,0.595025683,0.22128402,0.447,0.080721985,0.89,0.428792449,0.002011953,0,7.26E-06,0.159053013,0.794564609,8.24E-05,-85.69260703,32.38585029
1089,Alabama,Madison County,2017,240,334811,2278,49266,0.277717391,0.372406961,0.6491637,0.2385418,0.047,0.188391709,0.318430528,0.16920411,0.323,0.054807998,0.917557828,0.339817946,0.570027627,0,2.77E-06,0.587625206,1.053501826,0.001211043,-86.55056927,34.76292257
1091,Alabama,Marengo County,2017,8,21027,39,2317,0.11576087,0.10872674,0.4499437,0.5383355,0.004,0.074582319,0.495026455,0.195469495,0.403,0.077477233,0.970818505,0.280190088,0.003317158,7.43E-07,1.39E-05,0.482393056,0.908403481,5.27E-05,-87.78920946,32.24794915
1093,Alabama,Marion County,2017,16,30776,46,3689,0.10923913,0.130978635,0.9197063,0.03494076,0.025,0.056625637,0.310867866,0.193329785,0.355,0.069941314,0.884954683,0.168635514,2.37E-05,0,2.10E-08,0.887297332,0.94154536,0.000107149,-87.88740606,34.13691856
1095,Alabama,Marshall County,2017,55,93019,332,11182,0.170652174,0.19212612,0.8124126,0.02581323,0.133,0.126789011,0.348903471,0.190410686,0.332,0.057722812,0.921986183,0.123650584,0.000561614,0,4.20E-06,0.85601759,1.011933046,0.000453199,-86.30615623,34.36690867
1097,Alabama,Mobile County,2017,446,412992,2635,56985,0.286956522,0.223793935,0.5715226,0.3535435,0.028,0.142972634,0.439479894,0.216426266,0.371,0.069968377,0.864402805,0.320070794,0.022164557,1.18E-05,0.001850161,0.568528771,0.984994867,0.000904881,-88.20659057,30.77909854
1099,Alabama,Monroe County,2017,8,23068,54,2367,0.111956522,0.085742591,0.5433711,0.4078654,0.013,0.058576857,0.477581395,0.211782203,0.353,0.100808108,0.86,0.284232847,0.005113476,2.42E-07,0.001750826,0.572232664,0.913213109,5.52E-05,-87.36529615,31.57107175
1101,Alabama,Montgomery County,2017,377,229363,3321,37605,0.299456522,0.239507236,0.3454334,0.5750966,0.034,0.197034277,0.520478902,0.209038757,0.348,0.061643769,0.79,0.237354842,0.000602268,2.45E-07,3.13E-05,0.365942389,0.947859943,0.000776025,-86.20787706,32.22089414
1103,Alabama,Morgan County,2017,116,119490,572,14235,0.175,0.254677808,0.7597002,0.127105,0.08,0.116441221,0.325274804,0.185329052,0.316,0.058396545,0.91206754,0.11149762,0.274285564,0,0.000292757,0.769101381,0.976073312,0.000550125,-86.85325062,34.45331009
1105,Alabama,Perry County,2017,5,10591,13,1177,0.139130435,0.029057547,0.294961,0.6924942,0.007,0.065417568,0.700217865,0.229270246,0.43,0.099685804,0.975,0.201184802,0.002011953,0,7.26E-06,0.26897344,0.806533849,3.42E-05,-87.29424703,32.63859284
1107,Alabama,Pickens County,2017,8,19746,34,2087,0.075,0.148776706,0.5382304,0.4014189,0.041,0.073648448,0.461052632,0.209177125,0.364,0.067647059,0.9,0.128704498,0.002011953,0,7.26E-06,0.578701735,0.929048921,6.09E-05,-88.08923504,33.28058298
1109,Alabama,Pike County,2017,18,32899,204,5802,0.164673913,0.124827705,0.5617759,0.3790378,0.008,0.102675421,0.486411365,0.202827495,0.384,0.067385625,0.875,0.260884294,0.00522668,0.000786418,0.002357604,0.6034199,0.944861546,0.00013305,-85.94087373,31.80232564
1111,Alabama,Randolph County,2017,14,22913,36,2544,0.159782609,0.183158167,0.7526801,0.1954904,0.03,0.066544685,0.325198413,0.187343375,0.309,0.058773695,0.94647651,0.106218367,0.004384472,0,6.21E-07,0.770808339,0.969973378,0.000104376,-85.45918107,33.29354361
1113,Alabama,Russell County,2017,28,52947,495,10279,0.261956522,0.17910062,0.4698951,0.4257984,0.052,0.050323801,0.457250893,0.219890669,0.364,0.060124367,0.837740964,0.256959791,0.008896344,1.75E-07,1.59E-05,0.490180433,1.064422913,0.000238313,-85.18428296,32.28806204
1117,Alabama,Shelby County,2017,276,195085,622,17806,0.381521739,0.478747416,0.781299,0.1191228,0.058,0.17522285,0.199787268,0.139986577,0.301,0.042350997,0.95463838,0.104895269,0.00597992,2.11E-06,0.000297487,0.760648787,1.080231694,0.000730249,-86.66137476,33.26405258
1115,Alabama,St. Clair County,2017,146,83593,234,7164,0.233695652,0.298923156,0.8602959,0.09405997,0.023,0.044485482,0.296014511,0.179800649,0.33,0.052420622,0.901054732,0.102683247,0.003816078,0,1.01E-05,0.849919438,1.032825715,0.00037332,-86.31476905,33.71540022
1119,Alabama,Sumter County,2017,5,13763,5,1849,0.141304348,0.025361819,0.2465152,0.7196765,0.003,0.097644408,0.62285927,0.237174044,0.403,0.079663339,0.925,0.283388472,0.011673722,0.010542912,0,0.249881461,0.85751653,3.74E-05,-88.19904039,32.59104949
1121,Alabama,Talladega County,2017,40,82291,280,9643,0.169565217,0.179393522,0.628747,0.3226215,0.022,0.071138663,0.453337153,0.216134266,0.39,0.065682846,0.934404762,0.21472016,0.008105529,8.73E-09,4.56E-05,0.629723549,0.934622255,0.000291115,-86.16587666,33.37992421
1123,Alabama,Tallapoosa County,2017,20,41616,242,5076,0.179347826,0.199629566,0.6890442,0.2709912,0.024,0.08328021,0.492391551,0.191728941,0.369,0.061281188,0.865049505,0.278440042,2.10E-06,0,0,0.711243629,0.962586505,0.000151664,-85.79746538,32.86280802
1125,Alabama,Tuscaloosa County,2017,200,194656,1361,34472,0.285326087,0.275956237,0.6195875,0.3154893,0.035,0.155761582,0.392710608,0.19650795,0.343,0.054532845,0.84715005,0.241812559,0.004447684,2.92E-05,0.001158284,0.600402594,1.011918461,0.000421735,-87.52558359,33.28952146
1127,Alabama,Walker County,2017,30,67023,164,6932,0.154891304,0.185733977,0.891182,0.06130898,0.024,0.098179811,0.37106875,0.206520002,0.332,0.072185586,0.906273764,0.24153688,0.008817258,0.000816344,0.001672766,0.843653321,0.941154529,0.000216508,-87.29727889,33.80316281
1129,Alabama,Washington County,2017,6,17581,5,1293,0.2125,0.177515507,0.6510245,0.2455086,0.005,0.02545615,0.341618057,0.186315801,0.402,0.08863026,0.91,0.15389075,0.009467644,8.03E-07,7.26E-06,0.717918277,0.930151868,4.06E-05,-88.20819419,31.40759248
1131,Alabama,Wilcox County,2017,5,11670,6,966,0.111956522,0.060725362,0.2683875,0.6948839,0.005,0.077226299,0.631276901,0.242342447,0.449,0.146514936,0.875,0.243739746,0.004782942,0,0.00074262,0.285878867,0.907712082,3.18E-05,-87.30786547,31.98928301
1133,Alabama,Winston County,2017,15,24484,25,2591,0.1125,0.157787733,0.9393927,0.003769633,0.03,0.088722311,0.316811653,0.189613869,0.302,0.07601153,0.902974138,0.14118816,0.000233336,0,3.39E-05,0.913663387,0.956257148,0.000103478,-87.37341176,34.14959585
4001,Arizona,Apache County,2017,44,71518,22,6632,0.091304348,0.110053411,0.1831884,0.007172619,0.061,0.062643423,0.523491838,0.296215499,0.352,0.134052016,0.745660047,0.067610684,0.015096585,0.000289252,0,0.325395882,0.988128863,1.66E-05,-109.488754,35.39559896
4003,Arizona,Cochise County,2017,144,131346,409,18648,0.267391304,0.245184356,0.5520475,0.03527903,0.35,0.099190239,0.339539038,0.16523101,0.26,0.074240608,0.82574112,0.270797257,0.000339008,1.32E-06,0,0.616837204,0.911637964,5.39E-05,-109.7510129,31.87959362
4005,Arizona,Coconino County,2017,49,134421,480,21189,0.441847826,0.322432805,0.5407333,0.01215259,0.139,0.172741133,0.376103827,0.182779963,0.232,0.065524842,0.806120852,0.196376306,0.027746602,0.000117042,0,0.394453585,0.967490199,1.98E-05,-111.7705493,35.83875351
4007,Arizona,Gila County,2017,76,53597,165,6298,0.252717391,0.18869745,0.6242509,0.00571161,0.186,0.108909014,0.4705227,0.179079585,0.275,0.079602693,0.79728164,0.203002793,0.380051493,0.007040198,0.000140993,0.669435918,0.978524917,2.97E-05,-110.8119677,33.79996932
4009,Arizona,Graham County,2017,55,37220,82,3816,0.242934783,0.268470021,0.5091476,0.0180311,0.325,0.11854339,0.33881643,0.191784916,0.325,0.074134753,0.735639175,0.250831343,0.001005197,2.35E-08,0,0.708546698,0.927377754,2.12E-05,-109.8875198,32.93295414
4011,Arizona,Greenlee County,2017,31,8437,2,2002,0.084782609,0.351257753,0.4707492,0.02135943,0.464,0.091703135,0.35501785,0.156409297,0.347,0.079266782,0.919375,0.358628733,0.015851686,0.000311771,0,0.634048283,1.108095295,1.33E-05,-109.2401561,33.21537146
4012,Arizona,La Paz County,2017,31,20489,69,2454,0.166847826,0.113240868,0.5783778,0.00811555,0.263,0.074136264,0.499425947,0.153507045,0.32,0.076188143,0.796837349,0.208781926,0.000317505,0,0,0.717640758,0.993801552,1.18E-05,-113.981207,33.7291609
4013,Arizona,Maricopa County,2017,5605,3817117,65694,611973,0.413586957,0.356805651,0.5568699,0.05183909,0.306,0.15129387,0.355470623,0.130200119,0.254,0.051760418,0.779918512,0.234327653,0.007590208,1.35E-07,9.09E-07,0.515326142,1.110761866,0.001263321,-112.4908888,33.34875974
4015,Arizona,Mohave County,2017,102,200186,937,29072,0.261413043,0.198811165,0.7760065,0.009851308,0.159,0.107468814,0.405485893,0.187677549,0.296,0.080229479,0.76874512,0.115130673,2.88E-05,0,0,0.769531429,1.009026605,4.12E-05,-113.7581706,35.70456821
4017,Arizona,Navajo County,2017,74,107449,190,11460,0.202717391,0.171140593,0.4146359,0.007248977,0.112,0.14072738,0.450932497,0.237494011,0.309,0.096889865,0.778147292,0.197694918,0.004699782,1.56E-05,0,0.555594563,0.993587656,2.89E-05,-110.3213121,35.39960537
4019,Arizona,Pima County,2017,1574,980263,13159,162374,0.308152174,0.265756375,0.5208763,0.03218916,0.366,0.175760096,0.394653647,0.134212513,0.242,0.055557471,0.739259293,0.262186501,0.007556224,0.000398081,0,0.427015305,1.018199198,0.000299788,-111.7896381,32.09723099
4021,Arizona,Pinal County,2017,479,375770,2157,38706,0.39076087,0.304634735,0.5714963,0.04176346,0.296,0.037850422,0.345630197,0.160330705,0.316,0.063344015,0.742322275,0.119657631,0.010147262,0.000138791,3.41E-08,0.603250742,1.074111824,0.000215709,-111.34488,32.90415087
4023,Arizona,Santa Cruz County,2017,262,47420,244,5613,0.189130435,0.174698484,0.1487206,0.00214666,0.834,0.082594671,0.362277001,0.158745985,0.23,0.115075201,0.882757697,0.064498725,0.007573216,6.63E-05,0,0.250016034,0.969126951,0.000100702,-110.8466869,31.52598116
4025,Arizona,Yavapai County,2017,178,211033,646,32209,0.330978261,0.258373535,0.8067262,0.005448596,0.143,0.133153991,0.334060734,0.144354297,0.253,0.055707622,0.786729628,0.168491716,0.001998447,0.000252227,6.91E-07,0.667134285,1.061966612,7.48E-05,-112.5538467,34.59969928
4027,Arizona,Yuma County,2017,243,195751,649,23507,0.291304348,0.205634045,0.3135029,0.01717277,0.629,0.085390757,0.308418598,0.148295948,0.305,0.218202386,0.802754811,0.218899294,0.016957982,1.31E-07,0,0.505625904,1.01397694,0.000101607,-113.9058099,32.76933672
5001,Arkansas,Arkansas County,2017,4,19019,19,2895,0.180978261,0.166075121,0.7004524,0.2580556,0.03,0.115233069,0.390369331,0.204951914,0.338,0.043851287,0.845612245,0.285257918,0.000495963,0,0,0.66365999,0.929701877,4.81E-05,-91.37520643,34.29076839
5003,Arkansas,Ashley County,2017,5,21853,18,2601,0.157065217,0.167531013,0.6805278,0.2556362,0.052,0.081827133,0.358262967,0.21132452,0.421,0.079722493,0.823263889,0.166505516,0.002869734,5.86E-08,0.000951693,0.689129889,0.918363611,5.84E-05,-91.76814114,33.19120398
5005,Arkansas,Baxter County,2017,22,41513,26,4918,0.195652174,0.183433839,0.9488828,0.001795289,0.021,0.188793048,0.359821553,0.189889416,0.323,0.056723206,0.864109589,0.071732148,0.237964628,0,3.87E-10,0.778844595,0.982511502,0.00019964,-92.33686558,36.28715062
5007,Arkansas,Benton County,2017,157,221339,313,32041,0.301630435,0.378644039,0.7369411,0.01635648,0.163,0.124674607,0.220388123,0.162520449,0.301,0.038784686,0.896682163,0.141984263,0.000431128,2.48E-08,2.27E-06,0.684898078,1.191114083,0.000843898,-94.25598718,36.33873798
5009,Arkansas,Boone County,2017,20,36903,32,4665,0.174456522,0.198776706,0.9402489,0.004183652,0.023,0.161291595,0.297810219,0.192431463,0.339,0.050801292,0.921663136,0.215938915,5.92E-07,0,1.26E-08,0.807004809,0.999891608,0.000170074,-93.09137415,36.30874792
5011,Arkansas,Bradley County,2017,4,11508,10,1485,0.14673913,0.16645417,0.5566314,0.2893679,0.148,0.096099904,0.50156128,0.224730083,0.39,0.062232244,0.806465517,0.146928889,2.32E-08,0,0,0.621660471,0.930048662,4.43E-05,-92.16229542,33.46613806
5013,Arkansas,Calhoun County,2017,2,5368,9,552,0.177173913,0.205323915,0.7256824,0.2128028,0.039,0.082377686,0.454724409,0.209669005,0.342,0.058050847,0.882552083,0.103951051,0.002038482,0,0,0.708883822,0.943368107,2.18E-05,-92.50253376,33.55786388
5015,Arkansas,Carroll County,2017,27,27446,16,3674,0.145108696,0.20087009,0.8002654,0.006131889,0.148,0.123566539,0.266374126,0.188812193,0.358,0.047550891,0.810967742,0.141512549,6.40E-06,0,0,0.67002368,1.006193981,0.000118586,-93.53832319,36.34107901
5017,Arkansas,Chicot County,2017,4,11800,12,1720,0.151630435,0.110811509,0.3899871,0.54092,0.052,0.191649706,0.478851378,0.234234115,0.431,0.093733262,0.917894737,0.26987352,0.000495963,0,1.48E-06,0.422036409,0.836355932,4.38E-05,-91.29365079,33.2673446
5019,Arkansas,Clark County,2017,18,22995,52,3411,0.15923913,0.168538939,0.6888094,0.2397588,0.046,0.094908037,0.379497624,0.198670561,0.343,0.057170031,0.740714286,0.178335349,0.002000388,2.63E-09,0,0.548853457,0.841965645,6.82E-05,-93.17667235,34.05108285
5021,Arkansas,Clay County,2017,14,16083,13,2026,0.145652174,0.118426947,0.9551159,0.006174889,0.019,0.042518385,0.39184178,0.209695459,0.337,0.068566904,0.960430464,0.10164751,0.000495963,0,1.48E-06,0.759236932,0.916309146,6.21E-05,-90.41718919,36.36822542
5023,Arkansas,Cleburne County,2017,29,25970,23,2880,0.196195652,0.199888008,0.9474039,0.00554895,0.025,0.142096207,0.271066588,0.182045566,0.318,0.07192672,0.908834586,0.144528301,0.000495963,0,1.48E-06,0.818236887,0.948864074,0.000120916,-92.02725586,35.53853919
5025,Arkansas,Cleveland County,2017,3,8689,4,793,0.173369565,0.191867677,0.8459762,0.1123268,0.018,0.025359731,0.29388364,0.192183917,0.357,0.057669789,0.882552083,0.02924877,0.000495963,0,1.48E-06,0.772998452,0.936701577,3.62E-05,-92.18489948,33.89823609
5027,Arkansas,Columbia County,2017,7,24552,33,3464,0.183695652,0.137491385,0.5922903,0.3470199,0.025,0.1432428,0.490001941,0.205074943,0.364,0.06752783,0.894625,0.157356466,0.012624267,4.37E-07,0,0.634713829,0.88163897,8.25E-05,-93.22737493,33.2142428
5029,Arkansas,Conway County,2017,26,21273,18,2397,0.173913043,0.180978635,0.8164642,0.1078638,0.038,0.132117659,0.409422556,0.200741327,0.397,0.063115229,0.894642857,0.137614262,0.002847585,7.66E-09,0.000382167,0.646102607,0.969491844,0.00010083,-92.70098811,35.26227905
5031,Arkansas,Craighead County,2017,92,96443,121,18120,0.233152174,0.22122674,0.7671545,0.1378133,0.049,0.238261934,0.435428711,0.208180937,0.364,0.045879354,0.91804694,0.217750613,3.51E-05,0,1.22E-08,0.68477416,1.071171573,0.000405844,-90.63270647,35.8310138
5033,Arkansas,Crawford County,2017,87,61948,21,6973,0.20326087,0.227696416,0.8457869,0.01387822,0.073,0.09376693,0.339158368,0.208158968,0.351,0.053723464,0.865011919,0.188806234,2.17E-05,1.00E-12,2.84E-09,0.788041949,1.005440046,0.000285239,-94.24296995,35.588841
5035,Arkansas,Crittenden County,2017,55,50902,45,8382,0.225,0.162077877,0.4265195,0.4836676,0.024,0.090811967,0.545316125,0.235422797,0.388,0.063585421,0.859157895,0.790203244,0.000193397,0,1.08E-06,0.452972561,0.938843267,0.000213861,-90.30924635,35.20762172
5037,Arkansas,Cross County,2017,16,17870,7,2382,0.202173913,0.203738801,0.7285563,0.1946111,0.019,0.124377058,0.317957166,0.218040172,0.379,0.056358917,0.841857708,0.303490529,0.000495963,0,1.48E-06,0.696339071,0.926580862,7.29E-05,-90.77181286,35.29547453
5039,Arkansas,Dallas County,2017,3,8116,1,1042,0.170108696,0.141626465,0.5324273,0.4155005,0.031,0.138145944,0.292728403,0.198917444,0.362,0.074497574,0.925,0.255153467,0.000495963,0,1.48E-06,0.564323127,0.859536718,2.90E-05,-92.65420664,33.96953994
5041,Arkansas,Desha County,2017,4,13008,16,2249,0.091847826,0.086543763,0.455119,0.4707664,0.058,0.104826013,0.509079118,0.236770597,0.396,0.075776621,0.851666667,0.390029931,0.002283259,2.62E-08,0.001486968,0.462744147,0.897678352,4.05E-05,-91.2539449,33.83346926
5043,Arkansas,Drew County,2017,5,18509,16,2868,0.175,0.196640248,0.6667387,0.2875905,0.031,0.138071766,0.405030801,0.224812647,0.343,0.071410579,0.859979424,0.230337714,0.000495963,0,1.48E-06,0.626559317,0.946566535,5.90E-05,-91.71972855,33.58957425
5045,Arkansas,Faulkner County,2017,116,113237,110,17990,0.258695652,0.273449345,0.8029506,0.1133185,0.04,0.106450887,0.302653105,0.184008442,0.332,0.048411701,0.892945619,0.182965796,0.012063631,0,1.28E-07,0.667333722,1.051255332,0.000510865,-92.33201857,35.14732521
5047,Arkansas,Franklin County,2017,17,18125,29,1812,0.154891304,0.166049276,0.9209224,0.009505062,0.029,0.072203664,0.277433206,0.206283126,0.371,0.051517195,0.893693694,0.192495019,0.000402506,0,4.81E-05,0.785502732,0.97097931,7.82E-05,-93.89070916,35.51229968
5049,Arkansas,Fulton County,2017,10,12245,7,1200,0.126086957,0.137801516,0.952632,0.005848917,0.013,0.088356433,0.293017456,0.194991188,0.329,0.053563985,0.882552083,0.105401615,0.000495963,0,1.48E-06,0.764874399,0.968313597,5.21E-05,-91.81767336,36.3818346
5051,Arkansas,Garland County,2017,89,96024,63,14217,0.234782609,0.197777395,0.8229124,0.08127493,0.054,0.160716981,0.418637285,0.20418319,0.323,0.05663487,0.804727435,0.278365322,0.000275391,0,0.000340294,0.679384351,1.009487212,0.000389527,-93.15048723,34.57659951
5053,Arkansas,Grant County,2017,6,17853,19,1763,0.216304348,0.273363198,0.9273471,0.02919385,0.025,0.023618211,0.242438453,0.180887083,0.383,0.046918345,0.881988473,0.129082707,0.001520001,0,8.02E-08,0.806565225,1.00655352,7.64E-05,-92.42371463,34.29002049
5055,Arkansas,Greene County,2017,49,42090,35,6033,0.209782609,0.235260165,0.9341371,0.01606795,0.027,0.112786213,0.316057774,0.197531732,0.312,0.053487441,0.910395299,0.182722827,0.003677728,1.50E-10,1.48E-06,0.777318537,1.054003326,0.000208529,-90.55895377,36.11773282
5057,Arkansas,Hempstead County,2017,21,22609,30,3152,0.18423913,0.18234838,0.5487329,0.3022527,0.125,0.067176529,0.44658047,0.226041943,0.403,0.051657515,0.736450382,0.360373456,0.003859784,3.11E-07,2.12E-05,0.649306595,0.953425627,8.02E-05,-93.66809039,33.73564268
5059,Arkansas,Hot Spring County,2017,36,32923,26,3400,0.189130435,0.181547209,0.825895,0.1202864,0.034,0.044948765,0.369592608,0.201024615,0.347,0.05200563,0.907178841,0.160104834,0.005094686,0,1.52E-07,0.721844375,0.947240531,0.000146118,-92.94560125,34.31751189
5061,Arkansas,Howard County,2017,16,13789,14,1762,0.147826087,0.135354928,0.6462768,0.2062141,0.12,0.095228598,0.463862225,0.213995069,0.357,0.043966942,0.934121622,0.107493656,0.000950303,0,6.33E-06,0.700310588,0.961491044,6.05E-05,-93.99344494,34.08897983
5063,Arkansas,Independence County,2017,28,36647,38,4627,0.171195652,0.201025155,0.8897059,0.01797982,0.061,0.185515296,0.394776728,0.206696072,0.372,0.067051282,0.889285714,0.299689725,0.006775492,5.93E-06,0.00018573,0.775220394,0.993150872,0.000130951,-91.56991638,35.74143554
5065,Arkansas,Izard County,2017,13,13696,6,1283,0.158695652,0.172553411,0.9321484,0.01873294,0.021,0.015887917,0.277191558,0.191176926,0.339,0.068564555,0.898214286,0.105818828,0.000495963,0,1.48E-06,0.784093142,0.924357477,6.27E-05,-91.91279069,36.09526565
5067,Arkansas,Jackson County,2017,16,17997,16,2440,0.142934783,0.111871123,0.7696371,0.1237155,0.027,0.109979436,0.446952596,0.221360846,0.372,0.078077109,0.833384146,0.281812515,0.000667429,0,1.24E-05,0.673608243,0.82452631,7.17E-05,-91.21423884,35.59923757
5069,Arkansas,Jefferson County,2017,19,77435,32,10838,0.216304348,0.155935562,0.392352,0.5658866,0.02,0.163001789,0.536169706,0.21421047,0.407,0.072471235,0.827159574,0.514283361,0.012613721,5.49E-06,0.001685357,0.369674683,0.822134694,0.000213275,-91.93189159,34.26882203
5071,Arkansas,Johnson County,2017,25,25540,32,3271,0.168478261,0.146295658,0.7979536,0.01510022,0.137,0.131829645,0.239477041,0.21983901,0.364,0.059741761,0.884179104,0.112297075,4.35E-06,0,0,0.715073943,1.0128426,0.000107249,-93.46000035,35.57001766
5073,Arkansas,Lafayette County,2017,10,7645,6,831,0.032065217,0.105306685,0.5892986,0.3638467,0.012,0.030131398,0.480968858,0.204873665,0.363,0.07896735,0.882552083,0.130219602,0.000495963,0,1.48E-06,0.630107522,0.879659908,3.41E-05,-93.60684679,33.24091819
5075,Arkansas,Lawrence County,2017,17,17415,15,2292,0.122282609,0.157994487,0.9547063,0.01037855,0.013,0.06327576,0.386621017,0.223513925,0.318,0.062553312,0.898849372,0.082226414,1.89E-05,0,1.54E-07,0.762905955,0.910594315,7.53E-05,-91.1070497,36.04103952
5077,Arkansas,Lee County,2017,8,10424,10,1478,0.101086957,0.070460028,0.4091296,0.5633113,0.014,0.065191991,0.571127503,0.248728395,0.357,0.06918043,0.882552083,0.08987243,0.000495963,0,1.48E-06,0.414642364,0.709324635,4.02E-05,-90.78211015,34.78064921
5079,Arkansas,Lincoln County,2017,5,14134,10,1153,0.120108696,0.215179187,0.6432275,0.3116466,0.036,0.030674922,0.378787879,0.224953834,0.375,0.063427477,0.925,0.071752729,0.000495963,0,1.48E-06,0.662260592,0.6948493,6.39E-05,-91.73333878,33.95753882
5081,Arkansas,Little River County,2017,16,13171,8,1492,0.135326087,0.217091661,0.7306113,0.222437,0.033,0.085486897,0.39951989,0.195395726,0.327,0.056523285,0.897350993,0.139060098,0.009386004,1.66E-07,0.002346354,0.720711708,0.92665705,6.20E-05,-94.2339787,33.70228691
5083,Arkansas,Logan County,2017,16,22353,25,2416,0.1375,0.16850448,0.9064209,0.01346693,0.029,0.048789582,0.318885449,0.201565712,0.375,0.059430682,0.936290323,0.140758896,0.001758165,0,2.09E-06,0.770138025,0.949402765,8.19E-05,-93.71630518,35.21550403
5085,Arkansas,Lonoke County,2017,119,68356,79,7775,0.258695652,0.321511027,0.8613135,0.06054898,0.043,0.038926136,0.260379375,0.196618175,0.358,0.043490112,0.827723384,0.180377972,0.000190859,0,1.51E-05,0.778939962,1.055210954,0.00025332,-91.88791683,34.75441172
5087,Arkansas,Madison County,2017,12,15717,8,1556,0.1625,0.204195382,0.895683,0.00068425,0.054,0.054450918,0.172217709,0.215794374,0.34,0.039297659,0.875,0.161967404,6.20E-09,0,0,0.756292224,1.030603805,5.21E-05,-93.72465597,36.01103565
5089,Arkansas,Marion County,2017,8,16653,18,1689,0.147826087,0.132064094,0.943363,0.008821024,0.022,0.026182484,0.334854335,0.204507879,0.317,0.054492576,0.902272727,0.192703065,2.97E-06,0,0,0.788183153,0.974779319,7.35E-05,-92.68397295,36.26842934
5091,Arkansas,Miller County,2017,46,43462,49,6865,0.215217391,0.187069263,0.6898923,0.2461665,0.031,0.103609463,0.450855934,0.207187093,0.359,0.052054795,0.795256674,0.451292601,0.001087061,0,7.34E-05,0.725509107,0.979890479,0.000187832,-93.89142003,33.31200171
5093,Arkansas,Mississippi County,2017,34,46480,31,7742,0.158152174,0.146872846,0.5849501,0.3517546,0.04,0.087187942,0.494440757,0.240801961,0.398,0.09322402,0.856319555,0.505106411,0.003615094,1.00E-05,1.46E-05,0.554630458,0.886123064,0.000124909,-90.05430077,35.76420127
5095,Arkansas,Monroe County,2017,6,8149,19,1326,0.106521739,0.129238456,0.5418678,0.3996413,0.025,0.113038445,0.563734291,0.248189944,0.375,0.062813231,0.882552083,0.156642477,0.000495963,0,1.48E-06,0.531595886,0.856914959,3.06E-05,-91.20394825,34.67772323
5097,Arkansas,Montgomery County,2017,8,9487,16,860,0.069565217,0.152196761,0.9035917,0.002223952,0.041,0.047184399,0.233142857,0.187297168,0.338,0.069917203,0.882552083,0.066728334,0.000495963,0,1.48E-06,0.779416084,0.925371561,3.01E-05,-93.65944523,34.53888136
5099,Arkansas,Nevada County,2017,10,8997,24,1133,0.173913043,0.150301516,0.6308057,0.346801,0.004,0.049126298,0.205446727,0.239575605,0.36,0.052012045,0.882552083,0.122042184,2.06E-07,0,5.13E-06,0.633512855,0.90696899,3.57E-05,-93.30697684,33.66338522
5101,Arkansas,Newton County,2017,3,8330,0,757,0.120108696,0.169779462,0.9406218,0.000254842,0.014,0.027108342,0.236499069,0.203547324,0.342,0.050546852,0.882425743,0.160104834,0.000495963,0,1.48E-06,0.804420829,0.929771909,2.51E-05,-93.2178649,35.91979049
5103,Arkansas,Ouachita County,2017,8,26120,33,3712,0.108695652,0.126628187,0.5526425,0.4077823,0.021,0.120819284,0.471819927,0.211988695,0.348,0.066249243,0.882828283,0.227879314,1.10E-07,0,0,0.553246498,0.89754977,8.68E-05,-92.88191217,33.59337533
5105,Arkansas,Perry County,2017,13,10445,2,956,0.181521739,0.222975534,0.9216237,0.01801976,0.028,0.020914045,0.213020372,0.202106406,0.375,0.063075833,0.866906475,0.230548473,0.000495963,0,1.48E-06,0.741434574,0.979703207,4.98E-05,-92.93150636,34.947251
5107,Arkansas,Phillips County,2017,20,21757,28,3864,0.14076087,0.078178842,0.3459599,0.6263003,0.017,0.086006767,0.591427021,0.261369057,0.455,0.079158317,0.803327922,0.723906652,3.10E-05,0,0,0.362048537,0.842671324,7.11E-05,-90.84810681,34.42853288
5109,Arkansas,Pike County,2017,13,11291,11,1243,0.116847826,0.148328739,0.8750925,0.03284604,0.065,0.07774469,0.352307692,0.201902081,0.378,0.061961722,0.935227273,0.079504493,0.000495963,0,1.48E-06,0.821381986,0.929324241,4.74E-05,-93.65621,34.16356461
5111,Arkansas,Poinsett County,2017,22,24583,6,3663,0.155434783,0.164446933,0.8707076,0.04743494,0.028,0.026511294,0.487330788,0.236687621,0.384,0.057025681,0.816054313,0.21181599,0.000495963,0,1.48E-06,0.745326459,0.966562258,8.49E-05,-90.66282507,35.57408383
5113,Arkansas,Polk County,2017,11,20662,10,2102,0.144565217,0.145132667,0.877052,0.004513217,0.064,0.137722472,0.364757525,0.214149106,0.367,0.059932741,0.916860465,0.149758638,0.008427765,7.42E-11,1.69E-06,0.845210731,0.963314297,6.26E-05,-94.2279123,34.48595315
5115,Arkansas,Pope County,2017,51,61754,69,8361,0.188043478,0.187164025,0.8436774,0.02925649,0.085,0.152559251,0.285744486,0.20417235,0.321,0.055017933,0.845218833,0.156231803,0.000107723,0,1.29E-07,0.764772296,0.971030217,0.000209834,-93.03400145,35.4476948
5117,Arkansas,Prairie County,2017,18,8715,8,1033,0.149456522,0.186578222,0.8488598,0.1301553,0.006,0.095664251,0.329113924,0.199332546,0.363,0.048253799,0.836554622,0.073053458,0.000495963,0,1.48E-06,0.754745424,0.929776248,3.36E-05,-91.55194184,34.83010091
5119,Arkansas,Pulaski County,2017,664,382748,1968,71967,0.28423913,0.257624052,0.5270762,0.3632286,0.06,0.236251598,0.444807805,0.184578284,0.317,0.047335818,0.721392435,0.580099319,0.001345079,1.61E-05,8.07E-06,0.406130046,1.00635405,0.001392255,-92.31191414,34.76993891
5121,Arkansas,Randolph County,2017,15,17969,3,2126,0.163586957,0.143711234,0.9451798,0.01141851,0.019,0.121942051,0.348500517,0.202672065,0.353,0.074074074,0.890789474,0.085778271,0.000427779,0,1.56E-05,0.759858429,0.954922366,7.21E-05,-91.02752205,36.34154412
5125,Arkansas,Saline County,2017,205,107118,95,11464,0.278804348,0.361509304,0.8518164,0.07013872,0.045,0.087024823,0.296229138,0.176281595,0.325,0.042371501,0.917841001,0.188814916,2.60E-05,0,0,0.730124772,1.100851398,0.000443594,-92.67655329,34.64661779
5127,Arkansas,Scott County,2017,4,11233,6,1289,0.105434783,0.131986561,0.843325,0.002681479,0.075,0.060113454,0.385958254,0.206880126,0.325,0.049867021,0.853738318,0.147766146,2.69E-05,0,2.12E-06,0.819381952,0.917119202,3.07E-05,-94.06315729,34.86103868
5129,Arkansas,Searcy County,2017,5,8195,5,943,0.111956522,0.139576154,0.9326013,0.0068156,0.022,0.081068616,0.117321867,0.207532187,0.35,0.058246073,0.964618644,0.097047386,5.44E-07,4.50E-11,6.68E-08,0.830989897,0.95704698,3.15E-05,-92.69933958,35.91115674
5131,Arkansas,Sebastian County,2017,265,125744,74,21026,0.19673913,0.198587181,0.6996493,0.06895442,0.137,0.255205403,0.349080936,0.183872632,0.369,0.049973863,0.843536195,0.346098715,0.004423263,1.99E-07,2.36E-05,0.703092158,1.001009989,0.000645014,-94.27397371,35.19943145
5133,Arkansas,Sevier County,2017,20,17058,21,1959,0.130434783,0.228109924,0.5780841,0.05048566,0.329,0.098365364,0.375675135,0.213042264,0.367,0.063576629,0.939090909,0.095225355,0.000495963,0,1.48E-06,0.753270626,0.989740884,8.09E-05,-94.24072249,33.9971421
5135,Arkansas,Sharp County,2017,17,17264,4,1789,0.125543478,0.116471399,0.9369243,0.006043537,0.021,0.088717061,0.30831643,0.211053295,0.373,0.071452365,0.925,0.160104834,0.000495963,0,1.48E-06,0.786015391,0.993686284,7.59E-05,-91.47928351,36.16124847
5123,Arkansas,St. Francis County,2017,28,28258,6,4259,0.159782609,0.130668504,0.4013083,0.554309,0.026,0.103551676,0.543581357,0.239494058,0.425,0.07484361,0.788393939,0.317601789,0.000495963,0,1.48E-06,0.442153335,0.771816831,0.000109179,-90.74840472,35.02180511
5137,Arkansas,Stone County,2017,11,12394,5,1388,0.147826087,0.137611992,0.9479351,0.000723124,0.018,0.120045661,0.311068702,0.204715466,0.326,0.065157018,0.925,0.13478832,0.000495963,0,1.48E-06,0.773702025,0.997418106,5.49E-05,-92.15689859,35.86003074
5139,Arkansas,Union County,2017,9,41639,23,5208,0.191304348,0.20513439,0.6085271,0.3263868,0.038,0.165117842,0.414358867,0.202717599,0.394,0.063945173,0.824502488,0.335625236,0.058985145,0.000475487,1.34E-05,0.641039789,0.934268354,0.000101317,-92.59770646,33.17125929
5141,Arkansas,Van Buren County,2017,12,17295,10,1832,0.181521739,0.143943832,0.9358067,0.003895948,0.029,0.025430459,0.431431132,0.207328666,0.356,0.069526169,0.909887006,0.154334989,0.000495963,0,1.48E-06,0.776511312,0.939809193,6.20E-05,-92.51610324,35.58054667
5143,Arkansas,Washington County,2017,134,203065,163,40034,0.244565217,0.253626809,0.7139663,0.03487522,0.165,0.173707937,0.29647516,0.208518906,0.306,0.036074571,0.861908213,0.251953938,0.000702711,0,1.32E-05,0.554180801,1.100701746,0.000663067,-94.21571712,35.97899668
5145,Arkansas,White County,2017,41,77076,75,10563,0.207065217,0.203600965,0.8821126,0.03984569,0.042,0.111777778,0.293660287,0.18916943,0.363,0.064670833,0.835855809,0.121759099,7.52E-06,8.31E-12,4.30E-07,0.803025126,0.977567596,0.000204256,-91.74548804,35.25612459
5147,Arkansas,Woodruff County,2017,6,7260,4,1166,0.090217391,0.093340799,0.6938438,0.277027,0.005,0.093023604,0.395819726,0.216529206,0.358,0.067061144,0.882552083,0.079733794,4.98E-06,1.19E-06,0,0.546450317,0.888292011,2.97E-05,-91.24302721,35.18620495
5149,Arkansas,Yell County,2017,16,22185,26,2702,0.15326087,0.191014817,0.7548788,0.02011774,0.197,0.107371324,0.354525467,0.198540538,0.371,0.052748227,0.883636364,0.167850082,4.03E-07,1.73E-11,9.21E-06,0.75689882,0.952986252,6.17E-05,-93.41105962,35.00270728
6001,California,Alameda County,2017,5629,1510271,4123,281831,0.736956522,0.623587181,0.3184225,0.1048421,0.225,0.228905694,0.282665208,0.098734137,0.2,0.047444924,0.849570201,0.419340127,0.00144178,2.61E-14,4.86E-08,0.157052472,1.082213722,0.006038598,-121.888612,37.64642367
6003,California,Alpine County,2017,24,1175,1,132,0.120652174,0.383356306,0.591623,0.007853403,0.097,0,0.274900398,0.156292629,0.234,0.078846154,0.854612839,0.308294621,0.000185043,2.61E-14,0,0.393829405,0.950638298,3.53E-06,-119.8206263,38.59721624
6005,California,Amador County,2017,161,38091,100,4133,0.401086957,0.353290834,0.7867773,0.01979962,0.132,0.122463442,0.333689269,0.114864997,0.255,0.066370453,0.886153846,0.162344155,0.000396362,0,0,0.635878444,0.910162506,0.00017357,-120.651296,38.44638702
6007,California,Butte County,2017,1195,220000,837,39657,0.379347826,0.243409717,0.7239458,0.01454585,0.157,0.136637844,0.341642262,0.145094653,0.259,0.072092086,0.863372093,0.173808076,0.000185043,2.61E-14,0,0.520626009,1.020572727,0.000375574,-121.6008508,39.66681952
6009,California,Calaveras County,2017,112,45578,150,4654,0.526086957,0.327041695,0.8158505,0.006609926,0.115,0.10563409,0.306163022,0.117482757,0.235,0.064519259,0.938181818,0.14883768,0.000185043,2.61E-14,0,0.629736662,0.99036816,0.000119615,-120.554132,38.20478056
6011,California,Colusa County,2017,74,21419,61,3009,0.303804348,0.314576154,0.3574357,0.01290533,0.584,0.070024295,0.30876726,0.130017985,0.254,0.153488788,0.914285714,0.116198404,7.47E-07,0,0,0.571635544,1.00583594,5.00E-05,-122.2363987,39.17719198
6013,California,Contra Costa County,2017,1607,1049025,2842,138343,0.752173913,0.633390765,0.4438141,0.08266777,0.253,0.210728641,0.265244705,0.106190127,0.25,0.050059278,0.892540704,0.213084756,0.009385932,6.89E-07,5.67E-05,0.266416699,1.085070423,0.004286661,-121.9281273,37.91933375
6015,California,Del Norte County,2017,224,28610,116,3844,0.295652174,0.215971744,0.6261669,0.02764002,0.192,0.173225649,0.474112554,0.153906982,0.255,0.086031266,0.351485149,0.33898446,0.000185043,2.61E-14,0,0.595660746,0.868402656,7.27E-05,-123.8971513,41.74323775
6017,California,El Dorado County,2017,602,181058,437,21045,0.479347826,0.520279118,0.782113,0.007671661,0.126,0.156818484,0.216096043,0.112593711,0.206,0.056675755,0.917329797,0.132503835,0.000185043,2.61E-14,0,0.574972868,1.036656762,0.000296198,-120.5247066,38.77888901
6019,California,Fresno County,2017,1388,930450,3815,141949,0.352717391,0.267686079,0.2979716,0.04546839,0.524,0.142624948,0.415568523,0.136268692,0.266,0.101902884,0.818865537,0.295227067,0.005595927,0,0,0.467421532,1.045050245,0.0004441,-119.6506833,36.75807672
6021,California,Glenn County,2017,85,28122,73,4002,0.255434783,0.234381461,0.5200201,0.007993691,0.408,0.045987711,0.303212049,0.142817734,0.267,0.08733791,0.772357724,0.244064597,1.49E-05,5.13E-11,0,0.653789699,0.986523007,5.66E-05,-122.3921982,39.59788378
6023,California,Humboldt County,2017,759,134623,418,26864,0.341847826,0.218297726,0.7461626,0.009884509,0.111,0.143045291,0.397442356,0.159289783,0.255,0.056280236,0.855654762,0.19326103,0.000770519,1.06E-10,0,0.356252313,0.989058333,0.000102206,-123.8755258,40.69940115
6025,California,Imperial County,2017,1154,174528,394,23574,0.27173913,0.220933839,0.1097183,0.02167399,0.834,0.04665958,0.334734255,0.137749118,0.263,0.24008364,0.849512811,0.18107608,7.34E-05,1.57E-06,3.71E-07,0.280002654,0.994144206,0.000116199,-115.3657218,33.03935669
6027,California,Inyo County,2017,28,18546,30,3110,0.311413043,0.281581668,0.6297484,0.008847111,0.214,0.256046498,0.394432773,0.123463951,0.233,0.058272519,0.301369863,0.275876924,5.57E-09,0,0,0.573821425,0.954168015,4.19E-06,-117.4113187,36.51173415
6029,California,Kern County,2017,810,839631,4486,113432,0.34673913,0.278178842,0.3476915,0.05101959,0.522,0.104855132,0.375525268,0.145568508,0.303,0.102122083,0.825417202,0.323092555,0.007310527,0.000107385,3.24E-05,0.56767118,1.025452848,0.000293011,-118.72959,35.34292819
6031,California,Kings County,2017,466,152982,534,20249,0.354891304,0.290118884,0.3268899,0.05853074,0.537,0.085552334,0.378617752,0.152343626,0.264,0.104877129,0.830352827,0.27818676,0.003825171,0.000443319,0,0.570577085,0.880541502,0.000288777,-119.8151995,36.07520008
6033,California,Lake County,2017,401,64665,419,9820,0.35326087,0.191996899,0.7112147,0.02222984,0.194,0.113501621,0.454601416,0.149792856,0.262,0.076698696,0.858208955,0.313849976,0.000185043,2.61E-14,0,0.479701281,0.978891209,0.00013658,-122.7532352,39.0996887
6035,California,Lassen County,2017,71,34895,112,3630,0.34076087,0.31162991,0.6582652,0.08641975,0.185,0.101230443,0.318751327,0.140728724,0.239,0.072720595,0.849765258,0.233340071,9.42E-06,0,0,0.773014903,0.668204614,1.79E-05,-120.5947447,40.6733613
6037,California,Los Angeles County,2017,55188,9818605,44031,1808140,0.582608696,0.379591661,0.2633233,0.07877807,0.484,0.154545096,0.358224817,0.117002662,0.214,0.067214624,0.787210425,0.246714305,0.068208874,5.93E-07,0.000264432,0.238007888,1.019194784,0.006695289,-118.224703,34.32134579
6039,California,Madera County,2017,628,150865,386,17027,0.363043478,0.281667815,0.3453323,0.03119093,0.569,0.088729189,0.337970482,0.149549809,0.265,0.104959878,0.826690551,0.358781829,0.017599347,8.87E-10,0,0.578343987,0.987458987,0.000195363,-119.7624357,37.21825802
6041,California,Marin County,2017,1117,252409,347,41027,0.897826087,0.775577188,0.7138401,0.02150253,0.159,0.307324546,0.237208067,0.099794728,0.189,0.035423,0.919117647,0.107647653,0.000185043,2.61E-14,0,0.166855708,1.007769137,0.001339541,-122.7234103,38.07351203
6043,California,Mariposa County,2017,32,18251,36,2575,0.261413043,0.267151964,0.8053022,0.009464082,0.106,0.072705921,0.308833446,0.122088611,0.244,0.072117763,0.920289855,0.24407992,0.000185043,2.61E-14,0,0.62417239,0.951619089,3.18E-05,-119.9053183,37.58143472
6045,California,Mendocino County,2017,1238,87841,289,15176,0.425,0.250215369,0.6556016,0.005845211,0.245,0.199953093,0.39733319,0.133641346,0.224,0.058547019,0.835777126,0.296688069,0.000185043,2.61E-14,0,0.330269665,0.987477374,6.66E-05,-123.3914743,39.44027921
6047,California,Merced County,2017,454,255793,950,37129,0.355978261,0.257934183,0.2824789,0.02987271,0.582,0.100554696,0.398962553,0.15332989,0.295,0.113506421,0.871566095,0.357669909,0.00083315,4.22E-11,0,0.434950501,1.042061354,0.000375978,-120.7175058,37.19189197
6049,California,Modoc County,2017,22,9686,28,1356,0.210326087,0.215032736,0.7789214,0.0166704,0.146,0.118732328,0.157002188,0.13968524,0.232,0.087606838,0.89,0.390419175,0.000185043,2.61E-14,0,0.754548013,0.89169936,5.52E-06,-120.7251192,41.58969344
6051,California,Mono County,2017,69,14202,31,2616,0.438586957,0.368969676,0.6514745,0.002822069,0.271,0.107155153,0.197368421,0.12925623,0.228,0.061420345,0.323076923,0.147767431,0.000185043,2.61E-14,0,0.432227671,0.990423884,1.20E-05,-118.8872447,37.93940061
6053,California,Monterey County,2017,2471,415057,793,65240,0.588586957,0.400482426,0.3029417,0.02448224,0.579,0.128158053,0.333661767,0.111998366,0.223,0.080742424,0.8450476,0.247680396,1.31E-08,1.70E-07,0,0.281449884,1.010547949,0.000355921,-121.2387503,36.21711865
6055,California,Napa County,2017,315,136484,219,19645,0.708152174,0.556211234,0.5277094,0.0196684,0.337,0.211743119,0.284267101,0.117169912,0.237,0.046045591,0.892055791,0.198399507,2.40E-08,0,0,0.307560503,1.001428739,0.00050323,-122.3306328,38.5065458
6057,California,Nevada County,2017,298,98764,197,12721,0.491304348,0.37088215,0.8524402,0.006065071,0.092,0.166830372,0.259556661,0.119574709,0.211,0.054578482,0.469264544,0.193275864,2.76E-10,0,0,0.472803444,1.001204892,0.000278442,-120.7682923,39.30150048
6059,California,Orange County,2017,4792,3010232,9661,443152,0.792934783,0.561767746,0.4095959,0.01593208,0.342,0.202853676,0.26061177,0.10270581,0.197,0.044773839,0.899637894,0.118730936,0.008553283,0,3.95E-06,0.453982562,1.045858924,0.010796647,-117.760976,33.70311134
6061,California,Placer County,2017,681,348432,646,43628,0.622282609,0.552799793,0.7324305,0.01543898,0.136,0.257098343,0.231566766,0.101307866,0.217,0.050444504,0.89532678,0.10242754,2.32E-06,3.01E-11,2.27E-09,0.564125061,1.099709556,0.000735313,-120.717846,39.06347097
6063,California,Plumas County,2017,74,20007,45,2888,0.298913043,0.284993108,0.8327184,0.01037489,0.085,0.207285756,0.287156832,0.125746793,0.23,0.103574125,0.879310345,0.292569487,2.00E-06,0,0,0.610429108,0.92062778,1.92E-05,-120.8382348,40.00422172
6065,California,Riverside County,2017,2406,2189641,9759,253233,0.539673913,0.376981392,0.3593644,0.06063183,0.48,0.088768163,0.30831329,0.133875644,0.26,0.067278285,0.873771801,0.16451461,0.002336038,5.50E-09,1.03E-07,0.471389294,1.090983408,0.000900203,-115.9939021,33.74329781
6067,California,Sacramento County,2017,3665,1418788,7163,237627,0.470652174,0.376585114,0.4519799,0.09536477,0.228,0.171466324,0.357669156,0.129017503,0.274,0.060050885,0.806164985,0.304572232,0.000185043,0,5.14E-09,0.367942184,1.065154907,0.00425129,-121.3445212,38.44881725
6069,California,San Benito County,2017,893,55269,91,6579,0.629891304,0.532296692,0.3497374,0.00730443,0.589,0.073545708,0.292643752,0.115443999,0.233,0.076269193,0.886877828,0.222135196,1.88E-05,0,0,0.38508004,1.085870922,0.000115867,-121.0752215,36.60559815
6071,California,San Bernardino County,2017,1866,2035210,11350,248966,0.495652174,0.344383184,0.2918695,0.07907791,0.523,0.123023915,0.363411525,0.142462402,0.279,0.064585962,0.807315142,0.238146172,0.009548109,1.38E-06,7.16E-06,0.443149745,1.040747146,0.000287737,-116.1783784,34.84157876
6073,California,San Diego County,2017,9160,3095313,9230,540367,0.679891304,0.470942453,0.4588122,0.04709169,0.334,0.167817166,0.293563294,0.10798447,0.191,0.051992664,0.818198019,0.203061334,0.00034561,1.72E-06,7.30E-07,0.393792838,1.047938932,0.002121616,-116.7353982,33.03386576
6075,California,San Francisco County,2017,6858,805235,3037,241895,0.808152174,0.726774638,0.4064967,0.05013424,0.153,0.337808537,0.272557589,0.099091971,0.161,0.036368348,0.722306814,0.461635657,4.08E-11,0,0,0.098460704,1.078803082,0.050327738,-122.4396708,37.75668116
6077,California,San Joaquin County,2017,1542,685306,3201,95770,0.457065217,0.352834252,0.3248882,0.06818517,0.408,0.127253686,0.335061265,0.131881864,0.283,0.088755865,0.823078379,0.454307781,0.003065274,9.67E-11,0,0.423383802,1.067231281,0.001431513,-121.2712102,37.9345275
6079,California,San Luis Obispo County,2017,1125,269637,500,44400,0.579891304,0.435139559,0.6913148,0.01745217,0.222,0.183490883,0.260817856,0.11863992,0.245,0.046394451,0.915299632,0.220832894,3.61E-05,2.23E-07,1.12E-05,0.45561406,0.995416059,0.000229572,-120.4042917,35.38707354
6081,California,San Mateo County,2017,1253,718451,1175,113990,1,0.806237078,0.3956563,0.02198359,0.249,0.215512543,0.224092111,0.086615886,0.211,0.033943788,0.881298821,0.132474553,8.75E-07,0,1.36E-07,0.19583112,1.065009305,0.004602062,-122.328899,37.42298018
6083,California,Santa Barbara County,2017,1860,423895,917,71384,0.683695652,0.443392488,0.4492651,0.01776048,0.448,0.170179195,0.318244804,0.11466752,0.182,0.052763397,0.879282547,0.194033832,3.21E-06,2.61E-14,2.87E-07,0.344725311,1.01272249,0.000436952,-120.0150919,34.67142103
6085,California,Santa Clara County,2017,7394,1781642,2800,286477,0.982608696,0.826929704,0.3204203,0.02360785,0.261,0.220529093,0.225833542,0.084478031,0.195,0.041551168,0.836259301,0.147811119,0.000878801,1.10E-10,0.000263123,0.220599845,1.07297594,0.004020395,-121.6951016,37.23169965
6087,California,Santa Cruz County,2017,2249,262382,407,43368,0.722282609,0.498389042,0.575457,0.00861688,0.333,0.212053952,0.284462476,0.114726897,0.202,0.074981975,0.873783258,0.229407793,0.000185043,2.61E-14,0,0.190658271,1.006341898,0.001658999,-122.0017742,37.0561908
6089,California,Shasta County,2017,443,177223,659,27092,0.370652174,0.264619228,0.8017142,0.01194963,0.096,0.17040668,0.350864854,0.136540127,0.265,0.078041091,0.86300716,0.402054779,9.04E-06,0,7.23E-10,0.698956549,0.999650158,0.000127157,-122.0409443,40.76391106
6091,California,Sierra County,2017,32,3240,10,411,0.309782609,0.240670227,0.8761092,0.002047781,0.101,0.154545096,0.308855292,0.121200482,0.225,0.089563286,0.854612839,0.221258609,0.000185043,2.61E-14,0,0.635536671,0.912345679,7.93E-06,-120.5162324,39.58019892
6093,California,Siskiyou County,2017,68,44900,196,7357,0.281521739,0.20685734,0.766881,0.01421681,0.12,0.171890825,0.3423342,0.142957323,0.232,0.093777679,0.89701897,0.15671374,4.92E-08,0,0,0.610551834,0.964476615,1.82E-05,-122.5405164,41.59272613
6095,California,Solano County,2017,1232,413344,1842,57392,0.641304348,0.494667471,0.385082,0.1356806,0.258,0.173943713,0.36142013,0.115860764,0.301,0.061228243,0.842584921,0.272254278,0.002067262,5.68E-13,8.48E-06,0.336530983,1.049266471,0.001449976,-121.9331593,38.27025048
6097,California,Sonoma County,2017,2835,483878,1081,79280,0.669021739,0.487293246,0.6348019,0.01434621,0.264,0.209428249,0.301520303,0.115556693,0.209,0.044863719,0.828852216,0.211084563,1.93E-07,0,0,0.242670283,1.024646708,0.000857023,-122.8872965,38.52842052
6099,California,Stanislaus County,2017,1661,514453,1743,70886,0.424456522,0.320460028,0.4260997,0.02658627,0.45,0.144186228,0.349567671,0.144182874,0.326,0.095064068,0.846069336,0.310340734,0.001044442,4.45E-11,0,0.490155548,1.053573407,0.000978226,-120.9979524,37.55851635
6101,California,Sutter County,2017,442,94737,327,12883,0.363043478,0.316738456,0.4669664,0.01870202,0.302,0.178838668,0.291304174,0.124071554,0.287,0.107620917,0.84082397,0.178089809,0.000185043,2.61E-14,0,0.581594765,1.011917202,0.000429335,-121.6946189,39.03464654
6103,California,Tehama County,2017,124,63463,266,8970,0.283152174,0.195649552,0.6870276,0.006627428,0.242,0.105319657,0.314791653,0.139331932,0.272,0.079555379,0.890449438,0.312961346,1.82E-08,0,0,0.694704771,0.994674062,5.75E-05,-122.2338547,40.12559985
6105,California,Trinity County,2017,17,13786,38,1853,0.270108696,0.157727429,0.8246774,0.006764112,0.072,0.065076502,0.354392038,0.145448018,0.251,0.078029141,0.884615385,0.12140894,0.000185043,2.61E-14,0,0.559490621,0.904613376,1.02E-05,-123.1126773,40.65059444
6107,California,Tulare County,2017,387,442179,1600,59548,0.318478261,0.235441075,0.2901708,0.01274765,0.636,0.094927664,0.366093659,0.143781888,0.326,0.116627006,0.853570915,0.25951378,0.004290249,4.44E-11,0,0.550593078,1.039597086,0.000257232,-118.8004216,36.22081997
6109,California,Tuolumne County,2017,62,55365,171,7163,0.354347826,0.312758442,0.8040495,0.01631684,0.118,0.187074841,0.315451119,0.131200344,0.202,0.071253526,0.889455782,0.128204567,3.97E-08,0,0,0.614640534,0.919154701,6.48E-05,-119.9551317,38.02748982
6111,California,Ventura County,2017,1152,823318,1974,100132,0.753804348,0.549870779,0.4578416,0.01612641,0.423,0.16028466,0.270043637,0.099201878,0.203,0.056854141,0.845002325,0.119352654,0.001807613,9.13E-09,0,0.404998094,1.023167233,0.001239148,-119.0848457,34.45474678
6113,California,Yolo County,2017,459,200849,503,36138,0.515217391,0.39399552,0.4710923,0.02425841,0.314,0.258037913,0.297104697,0.118787885,0.227,0.064110217,0.887714663,0.184777048,0.001514904,0,0,0.274721503,1.044137636,0.000577337,-121.9015118,38.68648941
6115,California,Yuba County,2017,318,72155,404,10887,0.344021739,0.279427981,0.5574689,0.03099625,0.274,0.049245515,0.350304399,0.153821705,0.248,0.092405018,0.774353877,0.225256652,1.22E-07,0,0,0.624762833,1.049116485,0.000325663,-121.3508296,39.26930746
8001,Colorado,Adams County,2017,257,441603,7063,63433,0.517391304,0.408227085,0.5056013,0.03119801,0.393,0.097612096,0.304932221,0.171093992,0.263,0.043310522,0.721375498,0.193307032,0.005042351,0.000208332,2.84E-05,0.453362763,1.126591078,0.001159926,-104.3375808,39.87357077
8003,Colorado,Alamosa County,2017,101,15445,87,2683,0.18423913,0.163706065,0.4828509,0.008148869,0.458,0.264900008,0.319416996,0.183727028,0.23,0.051577432,0.794827586,0.097889528,4.68E-06,0,0,0.488532484,0.989899644,6.09E-05,-105.788359,37.57261807
8005,Colorado,Arapahoe County,2017,490,572003,10082,95589,0.5375,0.462930737,0.6072917,0.1030014,0.189,0.180047976,0.298841802,0.148525038,0.214,0.037180406,0.768047425,0.173297674,7.61E-07,0,0,0.422668606,1.113700453,0.002167242,-104.3385011,39.649919
8007,Colorado,Archuleta County,2017,42,12084,37,1476,0.334782609,0.263309786,0.7661915,0.01657887,0.183,0.192494936,0.315912273,0.141803487,0.165,0.040395713,0.925,0.112859255,0.0001023,4.48E-10,0,0.630396187,1.091194969,2.59E-05,-107.0481757,37.19365584
8009,Colorado,Baca County,2017,7,3788,7,502,0.085326087,0.149138525,0.8526523,0.009823183,0.105,0.235132367,0.326947637,0.165469518,0.194,0.021148036,0.786914286,0.097972517,0.0001023,4.48E-10,0,0.861001968,0.915522703,3.20E-06,-102.5601186,37.31923997
8011,Colorado,Bent County,2017,20,6499,17,657,0.177173913,0.122363887,0.633844,0.03477363,0.32,0.038057616,0.246589717,0.194320313,0.265,0.038953488,0.786914286,0.106720992,0.0001023,4.48E-10,0,0.668166459,0.617171873,9.85E-06,-103.0720227,37.95492416
8013,Colorado,Boulder County,2017,275,294567,1254,52266,0.594021739,0.503566506,0.7781298,0.008139426,0.138,0.268058694,0.245585568,0.125381736,0.134,0.031681813,0.873731343,0.122520962,0.000990984,1.43E-07,1.34E-07,0.238277793,1.057131315,0.00119755,-105.3574574,40.09241482
8014,Colorado,Broomfield County,2017,1114,55889,586,7874,0.6875,0.598173673,0.7712643,0.01111615,0.121,0.224133127,0.182902584,0.124630138,0.176,0.033368904,0.786914286,0.030698255,1.02E-05,0,0,0.42134437,1.214836551,0.005551855,-105.0532651,39.95343909
8015,Colorado,Chaffee County,2017,83,17809,37,2448,0.261956522,0.296278429,0.8493008,0.01909831,0.101,0.210028789,0.323590814,0.139908653,0.205,0.034109621,0.775,0.047320067,0.0001023,4.48E-10,0,0.524467349,1.019540682,5.15E-05,-106.1940269,38.74728839
8017,Colorado,Cheyenne County,2017,5,1836,2,203,0.141847826,0.301852171,0.7743992,0.000980873,0.149,0.114518626,0.111731844,0.137275125,0.237,0.027290448,0.786914286,0.050915079,0.0001023,4.48E-10,0,0.875118256,0.976034858,2.26E-06,-102.6036365,38.82780723
8019,Colorado,Clear Creek County,2017,109,9088,43,1079,0.323369565,0.428566506,0.8920994,0.01098198,0.061,0.15282766,0.154753643,0.133145803,0.181,0.03666607,0.675,0.237309361,9.41E-06,6.10E-08,1.03E-07,0.485482663,1.042473592,6.46E-05,-105.6447627,39.68922182
8021,Colorado,Conejos County,2017,30,8256,18,814,0.116847826,0.125413508,0.4401867,0.004421518,0.534,0.103697205,0.216014078,0.163158219,0.245,0.056182796,0.851652893,0.025557923,0.0001023,4.48E-10,0,0.519402981,0.985949612,1.65E-05,-106.1911108,37.20059578
8023,Colorado,Costilla County,2017,14,3524,8,412,0.159782609,0.089636458,0.3300787,0.004610795,0.638,0.15282766,0.396825397,0.158355928,0.219,0.065030675,0.786914286,0.090887787,0.0001023,4.48E-10,0,0.343257457,1.069523269,7.71E-06,-105.4278551,37.27823118
8025,Colorado,Crowley County,2017,34,5823,17,410,0.270108696,0.149879394,0.6246892,0.0365897,0.307,0.039974703,0.437056738,0.229813571,0.216,0.045003814,0.786914286,0.064299774,0.0001023,4.48E-10,0,0.760930896,0.507470376,1.92E-05,-103.7838298,38.32685938
8027,Colorado,Custer County,2017,27,4255,8,446,0.177173913,0.210682288,0.8504311,0.02564655,0.046,0.098263867,0.221407625,0.153878532,0.205,0.035429142,0.786914286,0.067999106,0.0001023,4.48E-10,0,0.721133649,1.107638073,1.72E-05,-105.3670379,38.10882281
8029,Colorado,Delta County,2017,128,30952,114,3545,0.289673913,0.209545141,0.8142424,0.005173663,0.15,0.143464585,0.267170661,0.149903409,0.204,0.056899213,0.83,0.055170254,0.0001023,4.48E-10,0,0.740376055,0.962942621,7.13E-05,-107.8629449,38.86135647
8031,Colorado,Denver County,2017,2659,600158,9372,159619,0.488586957,0.375646106,0.5374976,0.09030209,0.305,0.275955,0.36350822,0.171312976,0.164,0.037034754,0.605499841,0.359387442,5.08E-05,0,1.53E-09,0.204041779,1.150333745,0.012355959,-104.8760248,39.76129114
8033,Colorado,Dolores County,2017,9,2064,2,188,0.214673913,0.185441075,0.9092884,0,0.046,0,0.393643032,0.176335871,0.198,0.030634573,0.786914286,0.038168366,0.0001023,4.48E-10,0,0.795952797,0.999031008,4.62E-06,-108.5173886,37.75208472
8035,Colorado,Douglas County,2017,234,285465,1411,25449,0.726630435,0.819486561,0.8275636,0.01252533,0.083,0.146412199,0.153192454,0.103211535,0.17,0.03089719,0.9,0.047891872,0.0001023,2.61E-14,8.40E-10,0.599036396,1.170238033,0.001072317,-104.92921,39.32970828
8037,Colorado,Eagle County,2017,146,52197,93,7822,0.646195652,0.555625431,0.6715051,0.008720128,0.296,0.149804068,0.208196452,0.131203529,0.118,0.03120632,0.82,0.092373397,0.0001023,4.48E-10,0,0.389362901,1.04412131,8.71E-05,-106.6953848,39.62801893
8041,Colorado,El Paso County,2017,1415,622263,7202,99443,0.435326087,0.388921433,0.6946072,0.05949258,0.165,0.124324671,0.287514868,0.157056501,0.223,0.046113478,0.751123447,0.221277941,0.000703408,0.000459494,2.26E-05,0.623970389,1.091239556,0.000884296,-104.5257538,38.83242336
8039,Colorado,Elbert County,2017,59,23086,33,1210,0.391304348,0.658769814,0.889198,0.004570384,0.065,0.15282766,0.13887871,0.130601921,0.196,0.031415194,0.880482456,0.012603295,1.21E-08,0,0,0.788799763,1.103959109,3.68E-05,-104.1351629,39.2863996
8043,Colorado,Fremont County,2017,144,46824,195,4699,0.264673913,0.224913853,0.7919663,0.0401685,0.13,0.110583297,0.387393303,0.194603349,0.228,0.061697185,0.742948718,0.138479138,2.08E-05,4.48E-10,0,0.740584731,0.832329575,8.28E-05,-105.4399703,38.47306423
8045,Colorado,Garfield County,2017,90,56389,207,7908,0.4875,0.454083391,0.6846493,0.003894906,0.281,0.175256704,0.190974318,0.140725454,0.2,0.041365554,0.815087173,0.104463188,0.0001023,4.48E-10,0,0.538130581,1.03071521,5.33E-05,-107.9036205,39.59941978
8047,Colorado,Gilpin County,2017,93,5441,23,679,0.429891304,0.473225362,0.8647873,0.002532073,0.092,0.073240253,0.294172063,0.142115291,0.197,0.031007752,0.786914286,0.180774373,0.0001023,4.48E-10,0,0.489374995,1.095754457,0.000107407,-105.5221395,39.85721134
8049,Colorado,Grand County,2017,38,14843,44,2180,0.376086957,0.433158167,0.8760122,0.008097703,0.081,0.117840988,0.251304996,0.151183136,0.174,0.031825613,0.919545455,0.058799776,0.00022918,1.51E-05,0,0.572338283,1.027083474,2.18E-05,-106.1184564,40.10246658
8051,Colorado,Gunnison County,2017,22,15324,19,2943,0.373369565,0.299715713,0.8718631,0.00393058,0.091,0.163508588,0.288590604,0.161950496,0.148,0.029283172,0.925,0.11928806,0.0001023,4.48E-10,0,0.390756816,1.036805012,1.35E-05,-107.0316959,38.66684745
8053,Colorado,Hinsdale County,2017,4,843,0,119,0.225,0.27567195,0.9020501,0,0.06,0,0.185185185,0.127506694,0.205,0.029545455,0.786914286,0.023713361,0.0001023,4.48E-10,0,0.63246268,0.921708185,1.36E-06,-107.3003579,37.82131615
8055,Colorado,Huerfano County,2017,20,6711,29,1048,0.170108696,0.1422898,0.6358803,0.003038129,0.347,0.232103162,0.356656948,0.146894288,0.201,0.077213596,0.786914286,0.244655847,0.0001023,4.48E-10,0,0.535551786,0.968708091,1.07E-05,-104.9607082,37.68484082
8057,Colorado,Jackson County,2017,4,1394,4,235,0.194021739,0.246726396,0.8001543,0,0.244,0.153484509,0.152777778,0.144689226,0.214,0.036904762,0.786914286,0.056768699,0.0001023,4.48E-10,0,0.786249995,0.992109039,1.75E-06,-106.3427076,40.66623861
8059,Colorado,Jefferson County,2017,477,534543,4388,75283,0.525543478,0.506159545,0.7833921,0.01047812,0.152,0.174172783,0.281940608,0.137652754,0.183,0.035178348,0.83,0.130071542,0.088999598,0,1.85E-06,0.462203085,1.057993464,0.002022759,-105.2504738,39.58646067
8061,Colorado,Kiowa County,2017,4,1398,0,208,0.15,0.168814611,0.8695652,0.01173223,0.044,0.15282766,0.212201592,0.151728109,0.195,0.026481715,0.786914286,0.039833254,0.0001023,4.48E-10,0,0.888888896,0.971387697,1.53E-06,-102.7389041,38.43263854
8063,Colorado,Kit Carson County,2017,18,8270,22,962,0.241847826,0.265833908,0.7664702,0.02554028,0.192,0.079632445,0.288998358,0.156040703,0.276,0.024296094,0.786914286,0.147283608,0.0001023,4.48E-10,0,0.84698832,0.859008464,8.34E-06,-102.60233,39.30507096
8067,Colorado,La Plata County,2017,143,51334,143,8176,0.436413043,0.380634045,0.7873178,0.004319341,0.126,0.210339366,0.258791791,0.156653099,0.163,0.034555009,0.75444186,0.10181663,0.0001023,4.48E-10,0,0.447744727,1.045739666,8.77E-05,-107.843327,37.28655123
8065,Colorado,Lake County,2017,90,7310,66,1169,0.346195652,0.230272226,0.6588003,0.001054713,0.339,0.174743262,0.193627451,0.157295156,0.175,0.038211029,0.690648855,0.138380228,1.07E-05,0.000158978,6.70E-06,0.44005543,1.043228454,5.47E-05,-106.344854,39.20226223
8069,Colorado,Larimer County,2017,539,299630,1296,51184,0.494565217,0.408993797,0.8283688,0.008975015,0.112,0.18509703,0.249573779,0.131010664,0.187,0.032955087,0.789723656,0.120859488,3.49E-05,4.08E-08,0,0.472576082,1.117918766,0.000355323,-105.4615545,40.6665145
8071,Colorado,Las Animas County,2017,15,15507,49,2000,0.208695652,0.187431082,0.526906,0.007334791,0.424,0.137231656,0.305545617,0.154223331,0.21,0.056101886,0.786914286,0.069443946,0.0001023,4.48E-10,0,0.583333313,0.86496421,7.46E-06,-104.0385309,37.31577175
8073,Colorado,Lincoln County,2017,10,5467,8,719,0.266304348,0.251852171,0.6611391,0.09444845,0.227,0.077772909,0.265437788,0.166505216,0.238,0.033976125,0.786914286,0.077800912,0.0001023,4.48E-10,0,0.822251201,0.835375892,5.21E-06,-103.5137335,38.98742236
8075,Colorado,Logan County,2017,58,22709,116,2816,0.231521739,0.247536182,0.7778136,0.009129052,0.155,0.142690705,0.28062954,0.160123247,0.254,0.031049154,0.748478261,0.128988004,0.000132054,0,0,0.797328353,0.817429213,3.11E-05,-103.1101132,40.72463929
8077,Colorado,Mesa County,2017,208,146723,929,19211,0.334782609,0.288550999,0.8153842,0.00620675,0.142,0.228348243,0.348176433,0.16019297,0.235,0.055483835,0.761321573,0.189304097,0.002092264,5.32E-13,0,0.696131885,1.002044669,0.00012159,-108.4664844,39.01825229
8079,Colorado,Mineral County,2017,4,712,0,72,0.217934783,0.352084769,0.8675577,0.01944107,0.126,0.306969017,0.084745763,0.1355935,0.181,0.036613272,0.786914286,0.053879038,0.0001023,4.48E-10,0,0.59208262,1.073033708,1.78E-06,-106.9241901,37.66954135
8081,Colorado,Moffat County,2017,14,13795,83,1776,0.249456522,0.28100448,0.8114088,0.01003063,0.149,0.099442,0.227710843,0.158796481,0.258,0.045194588,0.825,0.079122125,0.150799036,1.19E-05,4.08E-08,0.858553171,0.942225444,6.87E-06,-108.2075581,40.61858161
8083,Colorado,Montezuma County,2017,59,25535,77,3371,0.241304348,0.229229841,0.7266587,0.001698252,0.122,0.199532235,0.359770913,0.164872777,0.217,0.056236482,0.70609589,0.116180626,0.0001023,4.48E-10,0,0.664045334,1.013628353,3.41E-05,-108.5964924,37.33893986
8085,Colorado,Montrose County,2017,87,41276,212,5163,0.294021739,0.245959683,0.7607347,0.00353785,0.205,0.146781548,0.273863511,0.151315082,0.197,0.050681562,0.786914286,0.100196048,0.0001023,4.48E-10,0,0.724606991,1.000654133,4.95E-05,-108.2688129,38.4024194
8087,Colorado,Morgan County,2017,103,28159,127,3995,0.248369565,0.270830462,0.5872173,0.03202746,0.358,0.098328039,0.337224728,0.148480572,0.269,0.037952458,0.7526875,0.097889528,0.001725301,2.79E-07,8.76E-06,0.721051693,0.977911147,5.87E-05,-103.8102221,40.26279879
8089,Colorado,Otero County,2017,70,18831,82,2925,0.19076087,0.120158511,0.538281,0.01353342,0.415,0.150661875,0.455024033,0.156651963,0.269,0.057836755,0.793865741,0.087310776,1.31E-05,0,0,0.626095772,0.94694918,3.86E-05,-103.7166632,37.90245342
8091,Colorado,Ouray County,2017,39,4436,10,606,0.446195652,0.362181254,0.9320203,0,0.057,0.231436992,0.1456,0.126442388,0.186,0.042680128,0.786914286,0.023747216,0.0001023,4.48E-10,0,0.443241477,1.078449053,2.33E-05,-107.7693048,38.15498465
8093,Colorado,Park County,2017,35,16206,28,1369,0.42826087,0.402076154,0.8916168,0.001379945,0.059,0.039326596,0.213921283,0.138387349,0.205,0.034318902,0.767929293,0.067159278,0.0001023,4.48E-10,0,0.642005026,1.096815994,2.14E-05,-105.7172304,39.11969049
8095,Colorado,Phillips County,2017,31,4442,2,571,0.213043478,0.263059959,0.7566003,0.00185271,0.201,0.196437658,0.181208054,0.143862662,0.228,0.023829431,0.786914286,0.075095008,0.0001023,4.48E-10,0,0.804220915,0.951373255,1.62E-05,-102.3573987,40.59394842
8097,Colorado,Pitkin County,2017,83,17148,14,3740,0.525,0.439834597,0.8552683,0.01485287,0.098,0.182342298,0.279732583,0.132594183,0.149,0.038429484,0.975,0.057902292,0.0001023,4.48E-10,0,0.258018821,1.039771402,4.91E-05,-106.9159345,39.21732141
8099,Colorado,Prowers County,2017,36,12551,28,1774,0.195108696,0.171511027,0.595088,0.01111849,0.372,0.071219676,0.359093731,0.160026838,0.261,0.040826785,0.772058824,0.063770561,4.62E-07,0,0,0.748569012,0.933152737,1.92E-05,-102.3932762,37.95519022
8101,Colorado,Pueblo County,2017,314,159063,1255,23421,0.263586957,0.210596141,0.5225673,0.01697179,0.427,0.14824778,0.397247877,0.159241064,0.259,0.056517029,0.749191804,0.334917931,0.021600852,1.29E-05,2.11E-06,0.502703071,1.017370476,0.000186751,-104.5124892,38.17377693
8103,Colorado,Rio Blanco County,2017,10,6666,10,875,0.226086957,0.304574431,0.8479505,0.003866976,0.099,0.287517412,0.222090261,0.160076943,0.226,0.052835505,0.786914286,0.058948952,0.0001023,4.48E-10,0,0.864889979,0.916591659,4.78E-06,-108.2172628,39.97993245
8105,Colorado,Rio Grande County,2017,62,11982,36,1755,0.14673913,0.158950724,0.52154,0.003964408,0.446,0.221519123,0.257383966,0.16545383,0.232,0.062779358,0.784677419,0.08910741,0.0001023,4.48E-10,0,0.606567025,0.924803872,3.27E-05,-106.3829289,37.58223621
8107,Colorado,Routt County,2017,47,23509,27,3368,0.4875,0.46592867,0.8953123,0.007759106,0.069,0.251389162,0.22639485,0.140326248,0.143,0.032320981,0.92542735,0.099698468,3.41E-05,4.30E-08,0,0.407638341,1.060912842,2.83E-05,-106.9915083,40.48549841
8109,Colorado,Saguache County,2017,9,6108,21,936,0.172282609,0.122518952,0.5851886,0,0.37,0.103743228,0.291814947,0.179450205,0.197,0.061093248,0.786914286,0.122676854,0.0001023,4.48E-10,0,0.447347879,1.078912901,5.08E-06,-106.2809773,38.08034572
8111,Colorado,San Juan County,2017,9,699,2,143,0.357065217,0.22721399,0.8988971,0,0.134,0.297589402,0.169230769,0.178875272,0.193,0.041493776,0.786914286,0.1398086,0.0001023,4.48E-10,0,0.447916657,1.018597997,4.38E-06,-107.6759098,37.7637698
8113,Colorado,San Miguel County,2017,27,7359,11,1660,0.438586957,0.381547209,0.8640813,0.002008032,0.099,0.136648193,0.198216735,0.157306763,0.167,0.037288794,0.786914286,0.052914747,0.0001023,4.48E-10,0,0.257734537,1.078950944,1.62E-05,-108.405806,38.00399367
8115,Colorado,Sedgwick County,2017,20,2379,1,348,0.139673913,0.215368711,0.8229787,0.01276596,0.112,0.182507988,0.506382979,0.147933061,0.221,0.033737024,0.4,0.113687852,0.0001023,4.48E-10,0,0.791731656,0.971836906,1.09E-05,-102.3519638,40.87598057
8117,Colorado,Summit County,2017,214,27994,69,4701,0.589130435,0.494495176,0.8226363,0.008577344,0.14,0.174885898,0.262898253,0.146121534,0.131,0.025033829,0.94,0.093910431,2.45E-06,0,0,0.347956598,1.087197257,0.000136314,-106.1163363,39.63420352
8119,Colorado,Teller County,2017,198,23350,72,2195,0.408695652,0.389334941,0.8914278,0.007921038,0.062,0.155735356,0.32952468,0.141485951,0.203,0.044227951,0.779411765,0.119683028,0.000197078,1.07E-07,0,0.730071902,1.047623126,0.000118229,-105.1619203,38.88227296
8121,Colorado,Washington County,2017,9,4814,9,606,0.203804348,0.251438663,0.8737603,0.01095041,0.096,0.044825177,0.205202312,0.140506035,0.232,0.02538434,0.786914286,0.108777863,0.0001023,4.48E-10,0,0.885934472,0.985043623,4.72E-06,-103.2015041,39.97109881
8123,Colorado,Weld County,2017,298,252825,1516,33922,0.37826087,0.436940041,0.6601078,0.01104285,0.29,0.103401241,0.254458275,0.15822091,0.26,0.038314953,0.795009074,0.172022188,0.000728634,4.11E-08,1.41E-06,0.622318745,1.181232078,0.000205118,-104.3930144,40.55487277
8125,Colorado,Yuma County,2017,20,10043,11,1374,0.245108696,0.242987595,0.7527063,0.008839011,0.226,0.210021933,0.234734918,0.16039289,0.248,0.026528258,0.786914286,0.02086062,0.000310143,0,0,0.841346145,0.980085632,1.08E-05,-102.4246098,40.00284508
9001,Connecticut,Fairfield County,2017,778,916829,4477,120070,0.626086957,0.626990007,0.6236832,0.1052705,0.19,0.193315162,0.25944359,0.121743266,0.214,0.052757158,0.893138476,0.1536966,0.000147404,0,1.83E-05,0.396299839,1.016287661,0.004053322,-73.38919037,41.26973285
9003,Connecticut,Hartford County,2017,646,894014,6258,133596,0.411956522,0.449112681,0.6185386,0.1280442,0.173,0.200906034,0.368532705,0.137582442,0.268,0.058550308,0.830747217,0.170673963,0.008483627,1.00E-07,3.01E-05,0.381323099,0.97506303,0.003261277,-72.73301048,41.80669859
9005,Connecticut,Litchfield County,2017,109,189927,476,20142,0.390217391,0.500740868,0.8900022,0.01564216,0.057,0.137829325,0.214062966,0.125944229,0.239,0.050256449,0.915055432,0.064304087,0.003375578,0,1.92E-07,0.571510136,0.949512181,0.000529564,-73.24526767,41.79242134
9007,Connecticut,Middlesex County,2017,205,165676,543,19107,0.458695652,0.556280152,0.8428578,0.04927526,0.059,0.158480532,0.241489329,0.124493813,0.241,0.047896257,0.956846584,0.066565489,0.000166157,0,2.21E-05,0.461471796,0.960609865,0.001183663,-72.5354823,41.46358412
9009,Connecticut,New Haven County,2017,542,862477,6635,133012,0.442934783,0.404376292,0.6355117,0.1237288,0.172,0.195786101,0.35879537,0.137086747,0.265,0.061415593,0.838385338,0.22199432,0.020038706,0,4.21E-05,0.436157823,0.966510411,0.003810054,-72.93235204,41.41072833
9011,Connecticut,New London County,2017,193,274055,1576,38320,0.424456522,0.440902826,0.759388,0.05288213,0.1,0.14327299,0.337832495,0.137051947,0.276,0.058105833,0.895301753,0.203610584,0.015705012,0,2.77E-05,0.464671284,0.941033734,0.001080754,-72.10232387,41.48708483
9013,Connecticut,Tolland County,2017,198,152691,356,15382,0.435326087,0.557615438,0.850161,0.02841957,0.052,0.116073371,0.252697052,0.125229506,0.248,0.048014283,0.921700244,0.162185281,0.001576294,0,4.54E-08,0.470343888,0.892148195,0.00098718,-72.33642171,41.85510643
9015,Connecticut,Windham County,2017,123,118428,579,15309,0.313586957,0.384097174,0.8305875,0.01788258,0.111,0.109881046,0.3416752,0.168933396,0.296,0.062068528,0.87330622,0.162185281,0.000170216,2.50E-13,1.51E-08,0.541597426,0.944742797,0.000608823,-71.98737539,41.83006633
10001,Delaware,Kent County,2017,139,162310,3473,20023,0.408695652,0.332417298,0.6217009,0.2447175,0.068,0.100911189,0.376142653,0.190191574,0.328,0.053962308,0.854821803,0.275474347,0.000114082,0,0,0.525873601,1.056521471,0.000807584,-75.56844621,39.08639126
10003,Delaware,New Castle County,2017,743,538479,11570,68761,0.447282609,0.437698139,0.5805113,0.2434894,0.096,0.177139488,0.38328786,0.158487025,0.277,0.047442563,0.852945888,0.320254041,0.092008275,2.58E-11,8.15E-05,0.344242573,1.00666507,0.003504414,-75.64791441,39.58150592
10005,Delaware,Sussex County,2017,112,197145,2616,20452,0.380434783,0.350318746,0.7500911,0.1216817,0.092,0.141251556,0.393345702,0.172477358,0.31,0.049636618,0.860946197,0.259515726,3.26E-05,4.53E-09,3.67E-06,0.614170551,1.123000837,0.000642649,-75.38998106,38.66089142
11001,District Of Columbia,District Of Columbia,2017,7473,601723,31130,178533,0.635326087,0.537698139,0.3623926,0.4606018,0.107,0.242915734,0.557017066,0.162384151,0.224,0.069116451,0.684472973,0.735490937,0.000274164,7.70E-08,1.49E-08,0.043048117,1.097913824,0.000120758,-77.01629654,38.90478149
12001,Florida,Alachua County,2017,405,247336,1559,54001,0.347826087,0.248880083,0.6154597,0.1975276,0.093,0.316741529,0.359397593,0.164989256,0.256,0.04543812,0.752153318,0.337200729,4.75E-05,4.28E-09,9.31E-08,0.381838351,1.024590031,0.000818272,-82.35823348,29.67497355
12003,Florida,Baker County,2017,68,27115,82,2464,0.245108696,0.358209855,0.8148281,0.1356847,0.024,0.102810193,0.319838057,0.1875983,0.358,0.053550948,0.82,0.209607957,3.20E-10,0,0,0.829759777,0.939332473,0.00012899,-82.28452499,30.3309289
12005,Florida,Bay County,2017,160,168852,1510,29934,0.375543478,0.272579256,0.7652864,0.1076819,0.06,0.117316576,0.372749547,0.176709663,0.299,0.054090779,0.71,0.295611885,0.005393306,3.04E-08,0,0.740484118,1.062433374,0.000651083,-85.62005473,30.26520819
12007,Florida,Bradford County,2017,150,28520,136,2780,0.277717391,0.224060992,0.7409467,0.1974128,0.038,0.08024282,0.396176912,0.183412943,0.359,0.047813953,0.775,0.268577215,3.88E-05,0,0,0.752977967,0.83141655,0.000247319,-82.16822073,29.94967764
12009,Florida,Brevard County,2017,845,543376,2705,75718,0.380434783,0.294374569,0.7484119,0.0965642,0.097,0.160058139,0.381766299,0.156963878,0.256,0.05868428,0.86,0.301747449,1.05E-05,0,0,0.603090286,1.070776037,0.001555535,-80.73218698,28.29324349
12011,Florida,Broward County,2017,2450,1748066,16005,284486,0.551086957,0.319994831,0.3721225,0.2748546,0.284,0.154975381,0.385327596,0.146112582,0.244,0.050363163,0.768736897,0.2566522,0.000500385,0,0.000526424,0.320471942,1.099000267,0.004311744,-80.48723143,26.15220703
12013,Florida,Calhoun County,2017,25,14625,54,1442,0.186413043,0.158692281,0.7698006,0.1228884,0.058,0.088465879,0.383091149,0.194184181,0.394,0.061266029,0.825,0.075763355,3.88E-05,0,0,0.789518297,0.858666667,6.78E-05,-85.19679907,30.40604523
12015,Florida,Charlotte County,2017,222,159978,542,19440,0.357608696,0.250146451,0.841456,0.05297422,0.069,0.141169236,0.356946229,0.143782164,0.257,0.058719046,0.76,0.127763219,3.88E-05,0,0,0.642921984,1.116791059,0.000715182,-81.91185513,26.90579274
12017,Florida,Citrus County,2017,130,141236,445,14236,0.270108696,0.182942798,0.883148,0.02721421,0.053,0.121446758,0.402222977,0.170345536,0.263,0.074404575,0.77,0.207086912,0.032183894,2.94E-06,0.000208116,0.704977691,1.013424339,0.000670971,-82.47793438,28.84873662
12019,Florida,Clay County,2017,414,190865,908,20760,0.44076087,0.365825293,0.7343686,0.09765017,0.093,0.126543785,0.290809271,0.151691621,0.297,0.048930249,0.84,0.196550751,2.84E-06,2.03E-07,0.000271853,0.7293185,1.102706101,0.00094153,-81.85783045,29.98317912
12021,Florida,Collier County,2017,621,321520,937,48450,0.494565217,0.391859063,0.6326438,0.06787993,0.272,0.146825001,0.354491037,0.12732034,0.195,0.052102095,0.84,0.143992574,0.001608652,0,0,0.633140743,1.148326698,0.000499689,-81.34769003,26.11069361
12023,Florida,Columbia County,2017,224,67531,455,8150,0.276630435,0.209364232,0.727328,0.1750814,0.058,0.08841242,0.395088677,0.18439447,0.363,0.053865784,0.71,0.374362163,2.15E-05,0,0,0.728234828,0.961232619,0.000234561,-82.62162029,30.22445638
12027,Florida,DeSoto County,2017,119,34862,136,4031,0.198913043,0.128092695,0.5499327,0.1209374,0.305,0.079556638,0.464548023,0.200239037,0.36,0.059934447,0.62,0.267075269,3.88E-05,0,0,0.641916871,0.964603293,0.000156481,-81.80959835,27.18691656
12029,Florida,Dixie County,2017,40,16422,52,1467,0.177173913,0.155487595,0.8443147,0.08115836,0.039,0.040409445,0.485558953,0.192816295,0.306,0.061023622,0.975,0.23521979,3.88E-05,0,0,0.820924997,0.906527829,6.28E-05,-83.15870461,29.60806814
12031,Florida,Duval County,2017,1314,864263,12846,159717,0.39076087,0.286741902,0.5348891,0.2916085,0.09,0.185694614,0.4315654,0.171319661,0.306,0.056678631,0.77,0.375316944,0.021856265,3.19E-05,0.00530368,0.507149458,1.061421118,0.003300143,-81.67063889,30.33214142
12033,Florida,Escambia County,2017,550,297619,1888,49497,0.352717391,0.25067195,0.6461341,0.2175448,0.055,0.138631553,0.409618154,0.180315585,0.289,0.055569878,0.73,0.42842581,0.017669392,0.000323783,0.001684943,0.607155323,0.993548799,0.001279984,-87.36273986,30.66830369
12035,Florida,Flagler County,2017,246,95696,290,12061,0.457065217,0.290179187,0.7490176,0.1035477,0.1,0.10042858,0.359913443,0.144559951,0.242,0.0617213,0.77,0.154282969,1.57E-06,0,0,0.605805695,1.145502424,0.000607572,-81.31358003,29.46163468
12037,Florida,Franklin County,2017,20,11549,33,1333,0.263586957,0.195270503,0.7694274,0.1343729,0.052,0.07253978,0.375584416,0.174111747,0.322,0.046497081,0.475,0.265956088,3.88E-05,0,0,0.702845454,0.871850377,5.73E-05,-84.82018866,29.8613762
12039,Florida,Gadsden County,2017,154,46389,147,5436,0.195652174,0.178618194,0.325119,0.5533607,0.1,0.046296402,0.625700483,0.20933466,0.365,0.070031956,0.65,0.268707573,5.46E-08,0,7.61E-05,0.309361786,0.93237621,0.000238569,-84.61383904,30.57930999
12041,Florida,Gilchrist County,2017,76,16939,21,1305,0.1625,0.190980358,0.8647176,0.06125461,0.055,0.075636072,0.244641764,0.177827747,0.315,0.055293222,0.925,0.141235352,3.88E-05,0,0,0.822151721,0.982997816,0.000136645,-82.80043459,29.72600841
12043,Florida,Glades County,2017,29,12884,45,1279,0.232608696,0.169633012,0.6026341,0.1318566,0.208,0.111432791,0.418230563,0.174797135,0.331,0.07066837,0.775,0.170627392,3.88E-05,0,0,0.702132642,0.95024837,4.48E-05,-81.1889838,26.95642237
12045,Florida,Gulf County,2017,20,15863,32,1667,0.401630435,0.207641282,0.747493,0.1775148,0.048,0.067192791,0.401371521,0.17739496,0.309,0.050595724,0.825,0.27665174,3.88E-05,0,0,0.755993783,0.821408309,7.77E-05,-85.23056011,29.95068747
12047,Florida,Hamilton County,2017,76,14799,52,1437,0.15,0.124009304,0.5488822,0.3389165,0.092,0.045756906,0.478534419,0.20488956,0.332,0.050988003,0.725,0.231326552,0.001747675,0.0002578,0,0.643912494,0.787418069,7.47E-05,-82.94763284,30.49612932
12049,Florida,Hardee County,2017,95,27731,88,3177,0.2125,0.149948312,0.4724916,0.0764654,0.432,0.039001129,0.398294595,0.207084473,0.339,0.067235859,0.6,0.151485517,0.000193773,0,0,0.709240973,0.93296311,0.000113987,-81.80953792,27.49319733
12051,Florida,Hendry County,2017,72,39140,176,4529,0.244565217,0.176946933,0.3271363,0.1098263,0.519,0.077904189,0.378291949,0.19965705,0.352,0.102761637,0.77,0.396976871,0.006283847,3.75E-08,0,0.57308048,1.016274911,9.50E-05,-81.16511547,26.55374425
12053,Florida,Hernando County,2017,208,172778,663,17812,0.347826087,0.222622329,0.783761,0.04755988,0.122,0.121841497,0.381818739,0.157934465,0.321,0.067858698,0.78,0.166502143,0.001971666,0,0,0.649699748,1.06778062,0.001060206,-82.42535431,28.55404893
12055,Florida,Highlands County,2017,196,98786,477,12106,0.248913043,0.147536182,0.6760071,0.08973468,0.189,0.137410481,0.320528967,0.152811416,0.31,0.073769562,0.64,0.191793375,3.74E-06,0,5.36E-09,0.664352179,1.026248659,0.000274335,-81.34078347,27.3428855
12057,Florida,Hillsborough County,2017,1549,1229226,11269,230596,0.42173913,0.309691592,0.4952813,0.1547695,0.274,0.178730251,0.39474566,0.162106686,0.283,0.049515347,0.76,0.197384282,0.00944336,1.83E-07,3.19E-05,0.464310706,1.12845807,0.003710743,-82.30867294,27.92948052
12059,Florida,Holmes County,2017,40,19927,58,2012,0.197826087,0.158683666,0.8694802,0.06767885,0.027,0.05452019,0.315911432,0.199321019,0.316,0.061746764,0.81,0.17222894,3.88E-05,0,0,0.897672772,0.887840618,0.000108539,-85.81424864,30.86794622
12061,Florida,Indian River County,2017,471,138028,568,19242,0.347282609,0.276946933,0.7563384,0.0882014,0.121,0.15393937,0.354672672,0.137059112,0.245,0.067528993,0.81,0.172288025,3.88E-05,0,0,0.626038134,1.10884748,0.000823657,-80.60559316,27.69396994
12063,Florida,Jackson County,2017,51,49746,148,5386,0.183695652,0.162077877,0.6534081,0.2683405,0.046,0.083420896,0.422331179,0.191056714,0.347,0.058291807,0.7,0.237763376,1.71E-08,0,0,0.690277934,0.812507538,0.000140892,-85.21596518,30.79547704
12065,Florida,Jefferson County,2017,41,14761,18,1554,0.239130435,0.241083735,0.5943283,0.343637,0.04,0.045750392,0.409128289,0.176699412,0.322,0.058075221,0.775,0.444831419,3.88E-05,0,0,0.526033998,0.871011449,6.30E-05,-83.89500601,30.43779668
12067,Florida,Lafayette County,2017,43,8870,15,786,0.166847826,0.166738456,0.6639982,0.1531336,0.143,0.02425177,0.178590355,0.187637876,0.353,0.045314427,0.875,0.169283905,3.88E-05,0,0,0.844304204,0.785231116,4.21E-05,-83.18086561,29.98555842
12069,Florida,Lake County,2017,182,297052,1530,37288,0.394021739,0.273053067,0.7063054,0.09875299,0.144,0.151354035,0.348630071,0.156960603,0.293,0.053854532,0.76,0.184726057,7.48E-08,0,0,0.619223654,1.150034337,0.000984374,-81.71135257,28.76121706
12071,Florida,Lee County,2017,431,618754,3087,98130,0.421195652,0.297234666,0.6781581,0.08204637,0.202,0.135272487,0.40953901,0.15164715,0.246,0.050267684,0.75,0.198228473,1.44E-05,7.82E-14,8.40E-11,0.605294824,1.180069947,0.002532243,-81.84068841,26.57801557
12073,Florida,Leon County,2017,688,275487,3101,58727,0.372826087,0.267169194,0.5684966,0.3068878,0.061,0.172776808,0.395083719,0.16206769,0.264,0.049701374,0.877778527,0.397654003,2.24E-08,0,0,0.368917465,1.005956724,0.001172244,-84.27761309,30.45806493
12075,Florida,Levy County,2017,46,40801,147,4049,0.211413043,0.150292901,0.8007057,0.0854333,0.08,0.054089411,0.396480201,0.178085581,0.322,0.05743714,0.82,0.160186363,2.29E-06,0,0,0.729762673,0.979534815,9.62E-05,-82.74249558,29.31952768
12077,Florida,Liberty County,2017,17,8365,12,789,0.142934783,0.147958305,0.7606695,0.1452481,0.049,0.111432791,0.385257302,0.20179437,0.396,0.057121383,0.775,0.074113687,0.000682132,0,0,0.796180367,0.753735804,2.59E-05,-84.88318825,30.24145856
12079,Florida,Madison County,2017,47,19224,30,2173,0.206521739,0.131986561,0.5443867,0.3832954,0.051,0.034711792,0.382457096,0.206584202,0.341,0.061630219,0.575,0.470936245,3.88E-05,0,0,0.579085588,0.853100291,7.07E-05,-83.46989512,30.44431386
12081,Florida,Manatee County,2017,591,322833,1974,50825,0.426086957,0.308821502,0.7150137,0.08460813,0.159,0.118174148,0.377904887,0.15172005,0.253,0.049623054,0.78,0.338100205,0.004478602,4.46E-10,0,0.588699996,1.180656872,0.001392322,-82.31571914,27.47189899
12083,Florida,Marion County,2017,725,331298,1634,40651,0.294021739,0.199629566,0.7082421,0.1211812,0.124,0.125083938,0.409795432,0.163160446,0.292,0.063730013,0.81,0.257037878,6.24E-07,0,0,0.634782255,1.04098425,0.000597415,-82.05662463,29.21028272
12085,Florida,Martin County,2017,410,146318,402,18520,0.428804348,0.325387664,0.7859577,0.05434665,0.132,0.149462081,0.303703992,0.131732259,0.213,0.052492312,0.89,0.135335386,0.000849908,0,0,0.638021827,1.067681352,0.000788638,-80.43133534,27.07737178
12086,Florida,Miami-Dade County,2017,3721,2496435,18328,459721,0.510326087,0.248053067,0.134461,0.160877,0.675,0.1736404,0.398631758,0.144749952,0.21,0.061438007,0.78,0.378602823,0.000401507,0,0,0.348589212,1.086376373,0.003881695,-80.55914415,25.61511557
12087,Florida,Monroe County,2017,631,73090,352,16300,0.705434783,0.403471744,0.6685097,0.06582378,0.235,0.14722064,0.351435152,0.146827453,0.22,0.034747861,0.77,0.299630538,8.70E-08,3.55E-11,0,0.535877705,1.039458202,0.000208808,-81.12021765,25.27277607
12089,Florida,Nassau County,2017,141,73314,225,8080,0.402173913,0.397217436,0.8735014,0.05976818,0.038,0.089487727,0.346141301,0.149561665,0.286,0.050141705,0.91,0.076046187,0.004461687,3.39E-09,0.004677733,0.759189129,1.119363287,0.000342513,-81.80190989,30.61062054
12091,Florida,Okaloosa County,2017,317,180822,1033,31557,0.425543478,0.36061337,0.7393754,0.09454162,0.087,0.165731281,0.343475897,0.165184732,0.264,0.044870961,0.82,0.253284244,4.25E-07,4.49E-07,0,0.751445055,1.095215184,0.000587429,-86.59219666,30.69101554
12093,Florida,Okeechobee County,2017,98,39996,152,4439,0.234782609,0.173837009,0.6360298,0.08224884,0.25,0.109460959,0.464109782,0.210192979,0.31,0.061570391,0.66,0.244855838,3.88E-05,0,0,0.702666163,0.965371537,0.000143303,-80.88873614,27.3866315
12095,Florida,Orange County,2017,931,1145956,10425,225393,0.457608696,0.294167815,0.4082285,0.1990525,0.302,0.175617975,0.390990959,0.152153778,0.249,0.049001625,0.777267463,0.39670571,0.023758632,0.000150642,0,0.371762097,1.153074813,0.004022204,-81.32311592,28.51429239
12097,Florida,Osceola County,2017,145,268685,1660,43612,0.472826087,0.25736561,0.3285403,0.09371594,0.516,0.094626622,0.369190993,0.166978545,0.291,0.056537832,0.81,0.272531255,8.97E-06,0,0,0.370516866,1.296626161,0.000712735,-81.14924253,28.06245875
12099,Florida,Palm Beach County,2017,1607,1320134,8531,195753,0.544565217,0.342479325,0.5529853,0.1814148,0.213,0.17000607,0.37982835,0.119406405,0.215,0.050267071,0.790919255,0.269500791,0.009455787,2.67E-08,0,0.420974374,1.098498334,0.002007492,-80.46503899,26.64741122
12101,Florida,Pasco County,2017,2593,464697,2764,55218,0.38423913,0.260415231,0.7556077,0.05136185,0.14,0.121848739,0.320425706,0.185669055,0.311,0.057671716,0.79,0.172592183,3.75E-06,0,0,0.611863434,1.115993863,0.001885208,-82.3964731,28.30833195
12103,Florida,Pinellas County,2017,2831,916542,6338,162712,0.405434783,0.269348725,0.7430218,0.1000746,0.092,0.193685711,0.418078096,0.170428488,0.255,0.048531824,0.78,0.312003879,0.005729964,1.03E-09,0,0.505815148,1.041111046,0.00950485,-82.73164012,27.92895178
12105,Florida,Polk County,2017,512,602095,4248,83865,0.340217391,0.243900758,0.5998271,0.1466341,0.206,0.108712576,0.41926831,0.161126884,0.323,0.061982187,0.69,0.207086548,0.029134724,3.97E-07,8.34E-06,0.572758079,1.115855471,0.001024476,-81.69711072,27.94872638
12107,Florida,Putnam County,2017,142,74364,512,8467,0.211956522,0.133192626,0.7158838,0.1592914,0.098,0.083159858,0.51728715,0.200835832,0.361,0.072371638,0.55,0.3609584,0.040622313,0.00014925,0.000289029,0.686832964,0.96838524,0.000270199,-81.7442726,29.60884076
12113,Florida,Santa Rosa County,2017,208,151372,443,17349,0.417934783,0.396743625,0.8263573,0.05903474,0.052,0.144222203,0.249190222,0.17574772,0.261,0.04758149,0.83,0.083624317,4.72E-05,8.55E-11,6.51E-07,0.779673755,1.110198716,0.000461308,-87.02194752,30.70016907
12115,Florida,Sarasota County,2017,856,379448,1427,55551,0.479891304,0.331288766,0.8336237,0.04419329,0.088,0.164087167,0.343856539,0.130436301,0.206,0.049643051,0.79,0.168251763,6.24E-08,0,0,0.559754908,1.088689359,0.002027101,-82.33141981,27.18432942
12117,Florida,Seminole County,2017,998,422718,2562,67665,0.47826087,0.375361819,0.6132094,0.1072786,0.201,0.164626556,0.320557639,0.145143141,0.246,0.047898876,0.86,0.199140721,5.98E-06,0,0,0.508193374,1.086310495,0.00400954,-81.23634611,28.71682625
12109,Florida,St. Johns County,2017,445,190039,473,25065,0.5125,0.492203653,0.8314374,0.05284434,0.064,0.198612334,0.225098566,0.133717722,0.219,0.038660139,0.898716609,0.157552491,1.57E-05,0,2.53E-08,0.672954798,1.268502781,0.001089916,-81.4405388,29.90168542
12111,Florida,St. Lucie County,2017,851,277789,1743,34994,0.444565217,0.251421433,0.5797913,0.1954606,0.181,0.08687548,0.370412122,0.172222563,0.279,0.062368179,0.75,0.221031221,2.91E-05,1.40E-10,0,0.512422562,1.117063671,0.001471606,-80.47111892,27.377528
12119,Florida,Sumter County,2017,115,93420,199,7018,0.295108696,0.301860786,0.8491558,0.07176919,0.057,0.073076619,0.374237619,0.113735009,0.269,0.074519819,0.78,0.101011293,3.03E-05,0,0,0.699633777,1.252515521,0.000612014,-82.08128977,28.70520781
12121,Florida,Suwannee County,2017,159,41551,140,4888,0.219021739,0.193814611,0.7563519,0.1298607,0.088,0.043804893,0.415357955,0.200621364,0.333,0.054888315,0.68,0.242130002,3.58E-06,4.06E-10,3.67E-06,0.782806396,0.985487714,0.000171587,-82.99147597,30.19562156
12123,Florida,Taylor County,2017,32,22570,67,2280,0.2,0.144262578,0.7202914,0.2183908,0.041,0.075906259,0.400418799,0.182434,0.389,0.06632822,0.675,0.432787908,0.01225724,1.28E-08,0.001899759,0.763047814,0.846876385,5.56E-05,-83.60328684,30.04712958
12125,Florida,Union County,2017,46,15535,51,1378,0.175543478,0.185923501,0.6974211,0.2166809,0.054,0.084633718,0.36201469,0.209218572,0.371,0.047739222,0.775,0.174903654,3.88E-05,0,0,0.818344653,0.663984551,0.000170008,-82.37209886,30.04340869
12127,Florida,Volusia County,2017,507,494593,3262,71839,0.370652174,0.228911096,0.7226373,0.103712,0.129,0.151136857,0.410581181,0.157899903,0.26,0.057308207,0.72,0.248267394,1.71E-05,0,0,0.567267478,1.060744895,0.001311871,-81.18197434,29.05852431
12129,Florida,Wakulla County,2017,73,30776,74,2554,0.291847826,0.366902136,0.7952442,0.1475358,0.036,0.061350831,0.384367322,0.171188254,0.364,0.045729322,0.78,0.158532659,3.88E-05,0,0,0.707402408,0.945022095,0.000141605,-84.40005301,30.16603091
12131,Florida,Walton County,2017,84,55043,232,8246,0.343478261,0.289429704,0.8436333,0.04684321,0.06,0.111432791,0.359118768,0.174869212,0.275,0.046335817,0.74,0.217529998,3.88E-05,0,0,0.789286613,1.202659739,0.000176134,-86.17009489,30.64341925
12133,Florida,Washington County,2017,40,24896,57,2335,0.201630435,0.146450724,0.7748107,0.1525279,0.035,0.052578055,0.308341709,0.191030418,0.385,0.05875612,0.7,0.137216662,3.88E-05,0,0,0.792312622,0.885483612,0.000112619,-85.66575949,30.61054912
13001,Georgia,Appling County,2017,8,18236,130,2146,0.138043478,0.166893522,0.6944836,0.1822369,0.097,0.115568693,0.443988776,0.186386105,0.348,0.070938999,0.87,0.093811518,0.000291487,0,0,0.793013871,0.989745558,9.71E-05,-82.28874491,31.749434
13003,Georgia,Atkinson County,2017,5,8375,38,1178,0.071195652,0.12654204,0.5676951,0.1779794,0.246,0.09430243,0.382365409,0.209225215,0.353,0.055785124,0.825,0.16001203,0.005695923,0,0,0.729320407,0.990567164,6.45E-05,-82.88008089,31.29704319
13005,Georgia,Bacon County,2017,8,11096,213,1466,0.107608696,0.14452102,0.7349483,0.1526541,0.085,0.113960296,0.368991688,0.178439505,0.327,0.05463938,0.925,0.16001203,1.32E-07,0,0,0.846928477,0.987923576,0.000105682,-82.45269728,31.55377644
13007,Georgia,Baker County,2017,2,3451,19,456,0.091304348,0.146450724,0.5346503,0.3850737,0.054,0.09430243,0.462462462,0.187694415,0.3,0.072615923,0.84,0.130697276,0.000103507,0,2.86E-10,0.543859661,0.923500435,2.44E-05,-84.44486551,31.32631349
13009,Georgia,Baldwin County,2017,37,45720,909,7682,0.210326087,0.165730531,0.52588,0.4198869,0.022,0.12134601,0.558076225,0.212492489,0.368,0.077632634,0.8,0.328180231,3.10E-07,0,0,0.49128741,0.861832896,0.000465748,-83.24970322,33.06940962
13011,Georgia,Banks County,2017,17,18395,153,1848,0.222282609,0.21696244,0.8800108,0.02701243,0.064,0.0351349,0.303316444,0.172497876,0.27,0.054398432,0.93,0.090689452,0.000103507,0,2.86E-10,0.899677336,1.009730905,0.000215104,-83.49753835,34.35397657
13013,Georgia,Barrow County,2017,93,69367,1253,7119,0.345652174,0.320124052,0.7223718,0.112958,0.1,0.046808172,0.306749719,0.172037828,0.346,0.051522051,0.74,0.279719275,0.006675797,9.56E-11,1.69E-08,0.76235193,1.131301628,0.001316718,-83.71288108,33.99268452
13015,Georgia,Bartow County,2017,46,100157,2263,12838,0.313043478,0.303790489,0.7788168,0.1057904,0.082,0.096879784,0.329297633,0.171700354,0.352,0.057459527,0.803903743,0.257304914,0.035727775,9.47E-05,0.000363227,0.784591973,1.035444352,0.000612952,-84.84068937,34.23786814
13017,Georgia,Ben Hill County,2017,15,17634,485,2905,0.167391304,0.107830806,0.5629008,0.3664452,0.06,0.110420263,0.508542268,0.213474665,0.353,0.090447537,0.81,0.233296582,2.49E-06,0,0,0.640239716,0.944652376,0.000181983,-83.22027638,31.75972075
13019,Georgia,Berrien County,2017,9,19286,163,2495,0.167391304,0.146235355,0.8219186,0.1105388,0.049,0.034373961,0.328128389,0.196448704,0.347,0.069757489,0.85,0.121372461,5.76E-06,0,0,0.838151157,0.980244737,0.000113024,-83.22972091,31.27569067
13021,Georgia,Bibb County,2017,131,155547,5235,29524,0.263586957,0.170080979,0.3876279,0.5395531,0.032,0.264515318,0.550294171,0.195868879,0.313,0.065625595,0.710148331,0.297382836,0.013536814,4.73E-08,1.36E-08,0.395249069,0.943759764,0.001646295,-83.69682554,32.80691473
13023,Georgia,Bleckley County,2017,13,13063,72,1613,0.160326087,0.213998966,0.6879843,0.2794521,0.027,0.066983777,0.496262015,0.172125296,0.304,0.091094494,0.875,0.159557997,0.000103507,0,2.86E-10,0.771576762,0.88042563,0.000158373,-83.32769512,32.43444176
13025,Georgia,Brantley County,2017,9,18411,127,1661,0.145652174,0.145098208,0.9246269,0.03065567,0.021,0.046536207,0.408862876,0.195616023,0.331,0.072708875,0.78,0.099656707,0.000103507,0,2.86E-10,0.899935365,1.008907718,0.000113381,-81.98175207,31.19714296
13027,Georgia,Brooks County,2017,7,16243,172,2089,0.208152174,0.121760855,0.5668929,0.3407374,0.056,0.041691089,0.414655423,0.194816673,0.335,0.059495549,0.775,0.279012588,0.000237239,0,0,0.594156384,0.951733054,8.47E-05,-83.57966245,30.84191162
13029,Georgia,Bryan County,2017,14,30233,282,3705,0.486956522,0.440506547,0.7375505,0.1415633,0.066,0.145345377,0.289599833,0.160420069,0.293,0.051761277,0.89,0.083882606,9.65E-08,0,0,0.723990917,1.218635266,0.000227266,-81.44364706,32.0140721
13031,Georgia,Bulloch County,2017,22,70217,2067,13702,0.254347826,0.186087181,0.6373994,0.2806023,0.037,0.115919787,0.394911047,0.194462122,0.335,0.059589729,0.841540656,0.099579847,0.000102048,0,0,0.619796395,1.006608086,0.000303038,-81.74304725,32.39689006
13033,Georgia,Burke County,2017,6,23316,364,3085,0.145108696,0.194564094,0.4708648,0.4856763,0.031,0.075481737,0.5473426,0.199564347,0.32,0.080495017,0.94,0.377769274,0.000103507,0,2.86E-10,0.48698765,0.951664093,7.26E-05,-82.00066679,33.0611801
13035,Georgia,Butts County,2017,27,23655,428,2439,0.252173913,0.186569607,0.6671158,0.2870316,0.031,0.055014819,0.350378034,0.175317747,0.287,0.064408115,0.86,0.134505904,0.000103507,0,2.86E-10,0.723580718,0.900190235,0.000350927,-83.95691187,33.28698774
13037,Georgia,Calhoun County,2017,5,6694,26,797,0.0875,0.099388353,0.326229,0.6079652,0.048,0.066304923,0.491758242,0.268303995,0.344,0.06088993,0.84,1,0.000103507,0,2.86E-10,0.413140863,0.707947416,6.07E-05,-84.62376804,31.52887387
13039,Georgia,Camden County,2017,14,50513,798,7504,0.345652174,0.311931427,0.6992071,0.1862124,0.064,0.065893278,0.285406238,0.165128661,0.315,0.054737687,0.89,0.239672045,7.56E-07,1.70E-10,3.73E-07,0.674890339,1.008492863,0.000231903,-81.67060271,30.93041791
13043,Georgia,Candler County,2017,10,10998,95,1548,0.159782609,0.109829428,0.6069086,0.2351529,0.115,0.078715779,0.50139958,0.214402697,0.303,0.055932881,0.875,0.16001203,0.000103507,0,2.86E-10,0.721951246,0.953627932,0.000117946,-82.07387018,32.40345007
13045,Georgia,Carroll County,2017,47,110527,3130,15070,0.291847826,0.253445899,0.7063316,0.186999,0.067,0.097654949,0.347897563,0.177365865,0.317,0.066017523,0.842611276,0.167908573,6.58E-05,0,3.37E-06,0.706681073,1.024672704,0.00063152,-85.07980892,33.58246933
13047,Georgia,Catoosa County,2017,86,63942,1269,7918,0.239673913,0.300973467,0.9117634,0.02159912,0.029,0.094690216,0.297321543,0.154503378,0.278,0.051303348,0.85,0.129192428,0.000103507,0,2.86E-10,0.813974321,1.029855181,0.00110075,-85.13865749,34.90377849
13049,Georgia,Charlton County,2017,3,12171,91,1135,0.123913043,0.17311337,0.614881,0.2548717,0.084,0.049840506,0.273978147,0.177518654,0.32,0.062434746,0.775,0.079174515,0.000103507,0,2.86E-10,0.746144116,0.855722619,4.40E-05,-82.13757286,30.7815722
13051,Georgia,Chatham County,2017,926,265128,10260,52413,0.394565217,0.29912991,0.4885682,0.3931698,0.063,0.180709175,0.437538016,0.168535378,0.313,0.057329381,0.81,0.231184318,0.005448841,0,0.000704637,0.42312324,1.041719471,0.001807967,-81.13247732,32.00445256
